SiRFDemo Version 3.81 log file opened 05/04/10 10:31:48

Tx: 0xA0A2000284000084B0B3
Tx: 0xA0A2000298000098B0B3
$GPGGA,015301.721,,,,,0,00,,,M,0.0,M,,0000*54
$GPGSA,A,1,,,,,,,,,,,,,,,*1E
$GPRMC,015301.721,V,,,,,,,010510,,*28
$GPGGA,015302.727,,,,,0,00,,,M,0.0,M,,0000*51
$GPGSA,A,1,,,,,,,,,,,,,,,*1E
$GPRMC,015302.727,V,,,,,,,010510,,*2D
$GPGGA,015303.725,,,,,0,00,,,M,0.0,M,,0000*52
$GPGSA,A,1,,,,,,,,,,,,,,,*1E
$GPRMC,015303.725,V,,,,,,,010510,,*2E
$GPGGA,015304.721,,,,,0,00,,,M,0.0,M,,0000*51
$GPGSA,A,1,,,,,,,,,,,,,,,*1E
$GPRMC,015304.721,V,,,,,,,010510,,*2D
$GPGGA,015305.727,,,,,0,00,,,M,0.0,M,,0000*56
$GPGSA,A,1,,,,,,,,,,,,,,,*1E
$GPGSV,3,1,12,20,00,000,,10,00,000,,25,00,000,,27,00,000,*79
$GPGSV,3,2,12,22,00,000,,07,00,000,,21,00,000,,24,00,000,*79
$GPGSV,3,3,12,16,00,000,,28,00,000,,26,00,000,,29,00,000,*78
$GPRMC,015305.727,V,,,,,,,010510,,*2A
$GPGGA,015306.725,,,,,0,00,,,M,0.0,M,,0000*57
$GPGSA,A,1,,,,,,,,,,,,,,,*1E
$GPRMC,015306.725,V,,,,,,,010510,,*2B
$GPGGA,015307.721,,,,,0,00,,,M,0.0,M,,0000*52
$GPGSA,A,1,,,,,,,,,,,,,,,*1E
$GPRMC,015307.721,V,,,,,,,010510,,*2E
$GPGGA,015308.727,,,,,0,00,,,M,0.0,M,,0000*5B
$GPGSA,A,1,,,,,,,,,,,,,,,*1E
$GPRMC,015308.727,V,,,,,,,010510,,*27
$GPGGA,015309.723,,,,,0,00,,,M,0.0,M,,0000*5E
$GPGSA,A,1,,,,,,,,,,,,,,,*1E
$GPRMC,015309.723,V,,,,,,,010510,,*22
$GPGGA,015310.722,,,,,0,00,,,M,0.0,M,,0000*57
$GPGSA,A,1,,,,,,,,,,,,,,,*1E
$GPGSV,3,1,12,20,00,000,,10,00,000,,25,00,000,,27,00,000,*79
$GPGSV,3,2,12,22,00,000,,07,00,000,,21,00,000,,24,00,000,*79
$GPGSV,3,3,12,16,00,000,,28,00,000,,26,00,000,,29,00,000,*78
$GPRMC,015310.722,V,,,,,,,010510,,*2B
$GPGGA,015311.727,,,,,0,00,,,M,0.0,M,,0000*53
$GPGSA,A,1,,,,,,,,,,,,,,,*1E
$GPRMC,015311.727,V,,,,,,,010510,,*2F
$GPGGA,015312.724,,,,,0,00,,,M,0.0,M,,0000*53
$GPGSA,A,1,,,,,,,,,,,,,,,*1E
$GPRMC,015312.724,V,,,,,,,010510,,*2F
$GPGGA,015313.717,,,,,0,00,,,M,0.0,M,,0000*52
$GPGSA,A,1,,,,,,,,,,,,,,,*1E
$GPRMC,015313.717,V,,,,,,,010510,,*2E
$GPGGA,015314.717,,,,,0,00,,,M,0.0,M,,0000*55
$GPGSA,A,1,,,,,,,,,,,,,,,*1E
$GPRMC,015314.717,V,,,,,,,010510,,*29
$GPGGA,015315.717,,,,,0,00,,,M,0.0,M,,0000*54
$GPGSA,A,1,,,,,,,,,,,,,,,*1E
$GPGSV,3,1,12,06,70,280,,24,66,075,,03,56,284,,16,50,194,*77
$GPGSV,3,2,12,21,50,069,,18,47,106,,22,34,153,,19,28,284,*73
$GPGSV,3,3,12,07,17,315,,15,10,052,,08,05,348,,26,02,088,*7A
$GPRMC,015315.717,V,,,,,,,010510,,*28
$GPGGA,015316.717,,,,,0,00,,,M,0.0,M,,0000*57
$GPGSA,A,1,,,,,,,,,,,,,,,*1E
$GPRMC,015316.717,V,,,,,,,010510,,*2B
$GPGGA,015317.717,,,,,0,00,,,M,0.0,M,,0000*56
$GPGSA,A,1,,,,,,,,,,,,,,,*1E
$GPRMC,015317.717,V,,,,,,,010510,,*2A
$GPGGA,015318.717,,,,,0,00,,,M,0.0,M,,0000*59
$GPGSA,A,1,,,,,,,,,,,,,,,*1E
$GPRMC,015318.717,V,,,,,,,010510,,*25
$GPGGA,015319.717,,,,,0,00,,,M,0.0,M,,0000*58
$GPGSA,A,1,,,,,,,,,,,,,,,*1E
$GPRMC,015319.717,V,,,,,,,010510,,*24
$GPGGA,015320.717,,,,,0,00,,,M,0.0,M,,0000*52
$GPGSA,A,1,,,,,,,,,,,,,,,*1E
$GPGSV,3,1,12,06,70,280,,24,66,075,,03,56,284,,16,50,194,*77
$GPGSV,3,2,12,21,50,069,,18,47,106,,22,34,153,,19,28,284,*73
$GPGSV,3,3,12,07,17,315,,15,10,052,,08,05,348,,26,02,088,*7A
$GPRMC,015320.717,V,,,,,,,010510,,*2E
$GPGGA,015321.717,,,,,0,00,,,M,0.0,M,,0000*53
$GPGSA,A,1,,,,,,,,,,,,,,,*1E
$GPRMC,015321.717,V,,,,,,,010510,,*2F
$GPGGA,015322.720,,,,,0,00,,,M,0.0,M,,0000*54
$GPGSA,A,1,,,,,,,,,,,,,,,*1E
$GPRMC,015322.720,V,,,,,,,010510,,*28
$GPGGA,015323.720,,,,,0,00,,,M,0.0,M,,0000*55
$GPGSA,A,1,,,,,,,,,,,,,,,*1E
$GPRMC,015323.720,V,,,,,,,010510,,*29
$GPGGA,015324.717,,,,,0,00,,,M,0.0,M,,0000*56
$GPGSA,A,1,,,,,,,,,,,,,,,*1E
$GPRMC,015324.717,V,,,,,,,010510,,*2A
$GPGGA,015325.717,,,,,0,00,,,M,0.0,M,,0000*57
$GPGSA,A,1,,,,,,,,,,,,,,,*1E
$GPGSV,3,1,12,06,70,280,,24,66,075,,03,56,284,,16,50,194,*77
$GPGSV,3,2,12,21,50,069,,18,47,106,,22,34,153,,19,28,284,*73
$GPGSV,3,3,12,07,17,315,,15,10,052,,08,05,348,,26,02,088,*7A
$GPRMC,015325.717,V,,,,,,,010510,,*2B
$GPGGA,015326.717,,,,,0,00,,,M,0.0,M,,0000*54
$GPGSA,A,1,,,,,,,,,,,,,,,*1E
$GPRMC,015326.717,V,,,,,,,010510,,*28
$GPGGA,015327.717,,,,,0,00,,,M,0.0,M,,0000*55
$GPGSA,A,1,,,,,,,,,,,,,,,*1E
$GPRMC,015327.717,V,,,,,,,010510,,*29
$GPGGA,015328.717,,,,,0,00,,,M,0.0,M,,0000*5A
$GPGSA,A,1,,,,,,,,,,,,,,,*1E
$GPRMC,015328.717,V,,,,,,,010510,,*26
$GPGGA,015329.721,,,,,0,00,,,M,0.0,M,,0000*5E
$GPGSA,A,1,,,,,,,,,,,,,,,*1E
$GPRMC,015329.721,V,,,,,,,010510,,*22
$GPGGA,015330.717,,,,,0,00,,,M,0.0,M,,0000*53
$GPGSA,A,1,,,,,,,,,,,,,,,*1E
$GPGSV,3,1,12,06,70,280,,24,66,075,,03,56,284,,16,50,194,*77
$GPGSV,3,2,12,21,50,069,,18,47,106,,22,34,153,,19,28,284,*73
$GPGSV,3,3,12,07,17,315,,15,10,052,,08,05,348,,26,02,088,*7A
$GPRMC,015330.717,V,,,,,,,010510,,*2F
$GPGGA,015331.717,,,,,0,00,,,M,0.0,M,,0000*52
$GPGSA,A,1,,,,,,,,,,,,,,,*1E
$GPRMC,015331.717,V,,,,,,,010510,,*2E
$GPGGA,015332.721,,,,,0,00,,,M,0.0,M,,0000*54
$GPGSA,A,1,,,,,,,,,,,,,,,*1E
$GPRMC,015332.721,V,,,,,,,010510,,*28
$GPGGA,015333.717,,,,,0,00,,,M,0.0,M,,0000*50
$GPGSA,A,1,,,,,,,,,,,,,,,*1E
$GPRMC,015333.717,V,,,,,,,010510,,*2C
$GPGGA,015334.717,,,,,0,00,,,M,0.0,M,,0000*57
$GPGSA,A,1,,,,,,,,,,,,,,,*1E
$GPRMC,015334.717,V,,,,,,,010510,,*2B
$GPGGA,015335.717,,,,,0,00,,,M,0.0,M,,0000*56
$GPGSA,A,1,,,,,,,,,,,,,,,*1E
$GPGSV,3,1,12,06,70,280,,24,66,075,,03,56,284,,16,50,194,*77
$GPGSV,3,2,12,21,50,069,,18,47,106,,22,34,153,,19,28,284,*73
$GPGSV,3,3,12,07,17,315,,15,10,052,,08,05,348,,26,02,088,*7A
$GPRMC,015335.717,V,,,,,,,010510,,*2A
$GPGGA,015336.717,,,,,0,00,,,M,0.0,M,,0000*55
$GPGSA,A,1,,,,,,,,,,,,,,,*1E
$GPRMC,015336.717,V,,,,,,,010510,,*29
$GPGGA,015337.717,,,,,0,00,,,M,0.0,M,,0000*54
$GPGSA,A,1,,,,,,,,,,,,,,,*1E
$GPRMC,015337.717,V,,,,,,,010510,,*28
$GPGGA,015338.717,,,,,0,00,,,M,0.0,M,,0000*5B
$GPGSA,A,1,,,,,,,,,,,,,,,*1E
$GPRMC,015338.717,V,,,,,,,010510,,*27
$GPGGA,015339.717,,,,,0,00,,,M,0.0,M,,0000*5A
$GPGSA,A,1,,,,,,,,,,,,,,,*1E
$GPRMC,015339.717,V,,,,,,,010510,,*26
$GPGGA,015340.717,,,,,0,00,,,M,0.0,M,,0000*54
$GPGSA,A,1,,,,,,,,,,,,,,,*1E
$GPGSV,3,1,12,06,70,280,,24,66,075,,03,56,284,,16,50,194,*77
$GPGSV,3,2,12,21,50,069,,18,47,106,,22,34,153,,19,28,284,*73
$GPGSV,3,3,12,07,17,315,,15,10,052,,08,05,348,,26,02,088,*7A
$GPRMC,015340.717,V,,,,,,,010510,,*28
$GPGGA,015341.721,,,,,0,00,,,M,0.0,M,,0000*50
$GPGSA,A,1,,,,,,,,,,,,,,,*1E
$GPRMC,015341.721,V,,,,,,,010510,,*2C
$GPGGA,015342.717,,,,,0,00,,,M,0.0,M,,0000*56
$GPGSA,A,1,,,,,,,,,,,,,,,*1E
$GPRMC,015342.717,V,,,,,,,010510,,*2A
$GPGGA,015343.717,,,,,0,00,,,M,0.0,M,,0000*57
$GPGSA,A,1,,,,,,,,,,,,,,,*1E
$GPRMC,015343.717,V,,,,,,,010510,,*2B
$GPGGA,015344.721,,,,,0,00,,,M,0.0,M,,0000*55
$GPGSA,A,1,,,,,,,,,,,,,,,*1E
$GPRMC,015344.721,V,,,,,,,010510,,*29
$GPGGA,015345.717,,,,,0,00,,,M,0.0,M,,0000*51
$GPGSA,A,1,,,,,,,,,,,,,,,*1E
$GPGSV,3,1,12,06,70,280,,24,66,075,,03,56,284,,16,50,194,*77
$GPGSV,3,2,12,21,50,069,,18,47,106,,22,34,153,,19,28,284,*73
$GPGSV,3,3,12,07,17,315,,15,10,052,,08,05,348,,26,02,088,*7A
$GPRMC,015345.717,V,,,,,,,010510,,*2D
$GPGGA,015346.717,,,,,0,00,,,M,0.0,M,,0000*52
$GPGSA,A,1,,,,,,,,,,,,,,,*1E
$GPRMC,015346.717,V,,,,,,,010510,,*2E
$GPGGA,015347.717,,,,,0,00,,,M,0.0,M,,0000*53
$GPGSA,A,1,,,,,,,,,,,,,,,*1E
$GPRMC,015347.717,V,,,,,,,010510,,*2F
$GPGGA,015348.717,,,,,0,00,,,M,0.0,M,,0000*5C
$GPGSA,A,1,,,,,,,,,,,,,,,*1E
$GPRMC,015348.717,V,,,,,,,010510,,*20
$GPGGA,015349.717,,,,,0,00,,,M,0.0,M,,0000*5D
$GPGSA,A,1,,,,,,,,,,,,,,,*1E
$GPRMC,015349.717,V,,,,,,,010510,,*21
$GPGGA,015350.717,,,,,0,00,,,M,0.0,M,,0000*55
$GPGSA,A,1,,,,,,,,,,,,,,,*1E
$GPGSV,3,1,12,06,70,280,,24,66,075,,03,56,284,,16,50,194,*77
$GPGSV,3,2,12,21,50,069,,18,47,106,,22,34,153,,19,28,284,*73
$GPGSV,3,3,12,07,17,315,,15,10,052,,08,05,348,,26,02,088,*7A
$GPRMC,015350.717,V,,,,,,,010510,,*29
$GPGGA,015351.716,,,,,0,00,,,M,0.0,M,,0000*55
$GPGSA,A,1,,,,,,,,,,,,,,,*1E
$GPRMC,015351.716,V,,,,,,,010510,,*29
$GPGGA,015352.716,,,,,0,00,,,M,0.0,M,,0000*56
$GPGSA,A,1,,,,,,,,,,,,,,,*1E
$GPRMC,015352.716,V,,,,,,,010510,,*2A
$GPGGA,015353.720,,,,,0,00,,,M,0.0,M,,0000*52
$GPGSA,A,1,,,,,,,,,,,,,,,*1E
$GPRMC,015353.720,V,,,,,,,010510,,*2E
$GPGGA,015354.716,,,,,0,00,,,M,0.0,M,,0000*50
$GPGSA,A,1,,,,,,,,,,,,,,,*1E
$GPRMC,015354.716,V,,,,,,,010510,,*2C
$GPGGA,015355.716,,,,,0,00,,,M,0.0,M,,0000*51
$GPGSA,A,1,,,,,,,,,,,,,,,*1E
$GPGSV,3,1,12,06,70,280,,24,66,075,,03,56,284,,16,50,194,*77
$GPGSV,3,2,12,21,50,069,,18,47,106,,22,34,153,,19,28,284,*73
$GPGSV,3,3,12,07,17,315,,15,10,052,,08,05,348,,26,02,088,*7A
$GPRMC,015355.716,V,,,,,,,010510,,*2D
$GPGGA,015356.733,,,,,0,00,,,M,0.0,M,,0000*55
$GPGSA,A,1,,,,,,,,,,,,,,,*1E
$GPRMC,015356.733,V,,,,,,,010510,,*29
$GPGGA,015357.729,,,,,0,00,,,M,0.0,M,,0000*5F
$GPGSA,A,1,,,,,,,,,,,,,,,*1E
$GPRMC,015357.729,V,,,,,,,010510,,*23
$GPGGA,015358.729,,,,,0,00,,,M,0.0,M,,0000*50
$GPGSA,A,1,,,,,,,,,,,,,,,*1E
$GPRMC,015358.729,V,,,,,,,010510,,*2C
$GPGGA,015359.733,,,,,0,00,,,M,0.0,M,,0000*5A
$GPGSA,A,1,,,,,,,,,,,,,,,*1E
$GPRMC,015359.733,V,,,,,,,010510,,*26
$GPGGA,083246.831,,,,,0,00,,,M,0.0,M,,0000*57
$GPGSA,A,1,,,,,,,,,,,,,,,*1E
$GPGSV,3,1,10,20,82,087,,23,54,194,,32,51,082,17,17,35,258,*77
$GPGSV,3,2,10,13,28,206,36,31,28,058,,04,27,303,,11,19,164,*7F
$GPGSV,3,3,10,12,05,345,,30,03,015,*78
$GPRMC,083246.831,V,,,,,,,270410,,*2E
$GPGGA,083247.831,,,,,0,00,,,M,0.0,M,,0000*56
$GPGSA,A,1,,,,,,,,,,,,,,,*1E
$GPRMC,083247.831,V,,,,,,,270410,,*2F
$GPGGA,083248.831,,,,,0,00,,,M,0.0,M,,0000*59
$GPGSA,A,1,,,,,,,,,,,,,,,*1E
$GPRMC,083248.831,V,,,,,,,270410,,*20
$GPGGA,083249.831,,,,,0,00,,,M,0.0,M,,0000*58
$GPGSA,A,1,,,,,,,,,,,,,,,*1E
$GPRMC,083249.831,V,,,,,,,270410,,*21
$GPGGA,083250.831,,,,,0,00,,,M,0.0,M,,0000*50
$GPGSA,A,1,,,,,,,,,,,,,,,*1E
$GPRMC,083250.831,V,,,,,,,270410,,*29
$GPGGA,083251.835,,,,,0,00,,,M,0.0,M,,0000*55
$GPGSA,A,1,,,,,,,,,,,,,,,*1E
$GPGSV,3,1,10,20,82,087,,23,54,194,29,32,51,082,27,17,35,258,*7F
$GPGSV,3,2,10,13,28,206,39,31,28,058,,04,27,303,,11,19,164,*70
$GPGSV,3,3,10,12,05,345,,30,03,015,*78
$GPRMC,083251.835,V,,,,,,,040510,,*2C
$GPGGA,083252.831,,,,,0,00,,,M,0.0,M,,0000*52
$GPGSA,A,1,,,,,,,,,,,,,,,*1E
$GPRMC,083252.831,V,,,,,,,040510,,*2B
$GPGGA,083253.835,,,,,0,00,,,M,0.0,M,,0000*57
$GPGSA,A,1,,,,,,,,,,,,,,,*1E
$GPRMC,083253.835,V,,,,,,,040510,,*2E
$GPGGA,083254.835,,,,,0,00,,,M,0.0,M,,0000*50
$GPGSA,A,1,,,,,,,,,,,,,,,*1E
$GPRMC,083254.835,V,,,,,,,040510,,*29
$GPGGA,083255.835,,,,,0,00,,,M,0.0,M,,0000*51
$GPGSA,A,1,,,,,,,,,,,,,,,*1E
$GPRMC,083255.835,V,,,,,,,040510,,*28
$GPGGA,083256.834,,,,,0,00,,,M,0.0,M,,0000*53
$GPGSA,A,1,,,,,,,,,,,,,,,*1E
$GPGSV,3,1,10,20,68,095,,23,68,189,23,13,42,209,29,32,39,088,21*78
$GPGSV,3,2,10,04,39,299,14,17,27,245,31,31,25,045,,11,08,164,*7D
$GPGSV,3,3,10,30,04,004,,12,01,335,*7C
$GPRMC,083256.834,V,,,,,,,040510,,*2A
$GPGGA,083257.834,,,,,0,00,,,M,0.0,M,,0000*52
$GPGSA,A,1,,,,,,,,,,,,,,,*1E
$GPRMC,083257.834,V,,,,,,,040510,,*2B
$GPGGA,083258.834,,,,,0,00,,,M,0.0,M,,0000*5D
$GPGSA,A,1,,,,,,,,,,,,,,,*1E
$GPRMC,083258.834,V,,,,,,,040510,,*24
$GPGGA,083259.834,,,,,0,00,,,M,0.0,M,,0000*5C
$GPGSA,A,1,,,,,,,,,,,,,,,*1E
$GPRMC,083259.834,V,,,,,,,040510,,*25
$GPGGA,083300.834,,,,,0,00,,,M,0.0,M,,0000*51
$GPGSA,A,1,,,,,,,,,,,,,,,*1E
$GPRMC,083300.834,V,,,,,,,040510,,*28
$GPGGA,083301.834,,,,,0,00,,,M,0.0,M,,0000*50
$GPGSA,A,1,,,,,,,,,,,,,,,*1E
$GPGSV,3,1,10,20,68,095,,23,68,189,21,13,42,209,30,32,39,088,21*72
$GPGSV,3,2,10,04,39,299,12,17,27,245,35,31,25,045,,11,08,164,*7F
$GPGSV,3,3,10,30,04,004,,12,01,335,*7C
$GPRMC,083301.834,V,,,,,,,040510,,*29
$GPGGA,083302.834,,,,,0,00,,,M,0.0,M,,0000*53
$GPGSA,A,1,,,,,,,,,,,,,,,*1E
$GPRMC,083302.834,V,,,,,,,040510,,*2A
$GPGGA,083303.834,,,,,0,00,,,M,0.0,M,,0000*52
$GPGSA,A,1,,,,,,,,,,,,,,,*1E
$GPRMC,083303.834,V,,,,,,,040510,,*2B
$GPGGA,083304.834,,,,,0,00,,,M,0.0,M,,0000*55
$GPGSA,A,1,,,,,,,,,,,,,,,*1E
$GPRMC,083304.834,V,,,,,,,040510,,*2C
$GPGGA,083305.834,,,,,0,00,,,M,0.0,M,,0000*54
$GPGSA,A,1,,,,,,,,,,,,,,,*1E
$GPRMC,083305.834,V,,,,,,,040510,,*2D
$GPGGA,083306.834,,,,,0,00,,,M,0.0,M,,0000*57
$GPGSA,A,1,,,,,,,,,,,,,,,*1E
$GPGSV,3,1,10,20,68,095,,23,68,189,22,13,42,209,31,32,39,088,20*71
$GPGSV,3,2,10,04,39,299,23,17,27,245,35,31,25,045,,11,08,164,*7D
$GPGSV,3,3,10,30,04,004,,12,01,335,*7C
$GPRMC,083306.834,V,,,,,,,040510,,*2E
$GPGGA,083307.834,,,,,0,00,,,M,0.0,M,,0000*56
$GPGSA,A,1,,,,,,,,,,,,,,,*1E
$GPRMC,083307.834,V,,,,,,,040510,,*2F
$GPGGA,083308.834,,,,,0,00,,,M,0.0,M,,0000*59
$GPGSA,A,1,,,,,,,,,,,,,,,*1E
$GPRMC,083308.834,V,,,,,,,040510,,*20
$GPGGA,083309.834,,,,,0,00,,,M,0.0,M,,0000*58
$GPGSA,A,1,,,,,,,,,,,,,,,*1E
$GPRMC,083309.834,V,,,,,,,040510,,*21
$GPGGA,083310.834,,,,,0,00,,,M,0.0,M,,0000*50
$GPGSA,A,1,,,,,,,,,,,,,,,*1E
$GPRMC,083310.834,V,,,,,,,040510,,*29
$GPGGA,083311.834,,,,,0,00,,,M,0.0,M,,0000*51
$GPGSA,A,1,,,,,,,,,,,,,,,*1E
$GPGSV,3,1,10,20,68,095,,23,68,189,28,13,42,209,31,32,39,088,19*71
$GPGSV,3,2,10,04,39,299,23,17,27,245,35,31,25,045,,11,08,164,*7D
$GPGSV,3,3,10,30,04,004,,12,01,335,*7C
$GPRMC,083311.834,V,,,,,,,040510,,*28
$GPGGA,083312.834,,,,,0,00,,,M,0.0,M,,0000*52
$GPGSA,A,1,,,,,,,,,,,,,,,*1E
$GPRMC,083312.834,V,,,,,,,040510,,*2B
$GPGGA,083313.834,,,,,0,00,,,M,0.0,M,,0000*53
$GPGSA,A,1,,,,,,,,,,,,,,,*1E
$GPRMC,083313.834,V,,,,,,,040510,,*2A
$GPGGA,083314.834,,,,,0,00,,,M,0.0,M,,0000*54
$GPGSA,A,1,,,,,,,,,,,,,,,*1E
$GPRMC,083314.834,V,,,,,,,040510,,*2D
$GPGGA,083315.834,,,,,0,00,,,M,0.0,M,,0000*55
$GPGSA,A,1,,,,,,,,,,,,,,,*1E
$GPRMC,083315.834,V,,,,,,,040510,,*2C
$GPGGA,083316.834,,,,,0,00,,,M,0.0,M,,0000*56
$GPGSA,A,1,,,,,,,,,,,,,,,*1E
$GPGSV,3,1,10,23,68,189,26,20,68,095,,13,43,209,31,32,39,088,20*74
$GPGSV,3,2,10,04,39,299,22,17,27,245,30,31,25,045,,11,08,164,*79
$GPGSV,3,3,10,30,04,004,,12,01,334,*7D
$GPRMC,083316.834,V,,,,,,,040510,,*2F
$GPGGA,083317.834,,,,,0,00,,,M,0.0,M,,0000*57
$GPGSA,A,1,,,,,,,,,,,,,,,*1E
$GPRMC,083317.834,V,,,,,,,040510,,*2E
$GPGGA,083318.834,,,,,0,00,,,M,0.0,M,,0000*58
$GPGSA,A,1,,,,,,,,,,,,,,,*1E
$GPRMC,083318.834,V,,,,,,,040510,,*21
$GPGGA,083319.834,,,,,0,00,,,M,0.0,M,,0000*59
$GPGSA,A,1,,,,,,,,,,,,,,,*1E
$GPRMC,083319.834,V,,,,,,,040510,,*20
$GPGGA,083320.834,,,,,0,00,,,M,0.0,M,,0000*53
$GPGSA,A,1,,,,,,,,,,,,,,,*1E
$GPRMC,083320.834,V,,,,,,,040510,,*2A
$GPGGA,083321.834,,,,,0,00,,,M,0.0,M,,0000*52
$GPGSA,A,1,,,,,,,,,,,,,,,*1E
$GPGSV,3,1,10,23,68,189,18,20,68,095,,13,43,209,21,32,39,088,19*72
$GPGSV,3,2,10,04,39,299,25,17,27,245,21,31,25,045,,11,08,164,*7E
$GPGSV,3,3,10,30,04,004,21,12,01,334,*7E
$GPRMC,083321.834,V,,,,,,,040510,,*2B
$GPGGA,083322.834,,,,,0,00,,,M,0.0,M,,0000*51
$GPGSA,A,1,,,,,,,,,,,,,,,*1E
$GPRMC,083322.834,V,,,,,,,040510,,*28
$GPGGA,083323.835,,,,,0,00,,,M,0.0,M,,0000*51
$GPGSA,A,1,,,,,,,,,,,,,,,*1E
$GPRMC,083323.835,V,,,,,,,040510,,*28
$GPGGA,083324.835,,,,,0,00,,,M,0.0,M,,0000*56
$GPGSA,A,1,,,,,,,,,,,,,,,*1E
$GPRMC,083324.835,V,,,,,,,040510,,*2F
$GPGGA,083325.835,,,,,0,00,,,M,0.0,M,,0000*57
$GPGSA,A,1,,,,,,,,,,,,,,,*1E
$GPRMC,083325.835,V,,,,,,,040510,,*2E
$GPGGA,083326.835,,,,,0,00,,,M,0.0,M,,0000*54
$GPGSA,A,1,,,,,,,,,,,,,,,*1E
$GPGSV,3,1,10,23,68,189,29,20,68,095,,13,43,209,,32,39,088,*7B
$GPGSV,3,2,10,04,39,299,,17,27,245,,31,25,045,,11,08,164,*7A
$GPGSV,3,3,10,30,04,004,,12,01,334,*7D
$GPRMC,083326.835,V,,,,,,,040510,,*2D
$GPGGA,083327.835,,,,,0,00,,,M,0.0,M,,0000*55
$GPGSA,A,1,,,,,,,,,,,,,,,*1E
$GPRMC,083327.835,V,,,,,,,040510,,*2C
$GPGGA,083328.835,,,,,0,00,,,M,0.0,M,,0000*5A
$GPGSA,A,1,,,,,,,,,,,,,,,*1E
$GPRMC,083328.835,V,,,,,,,040510,,*23
$GPGGA,083329.835,,,,,0,00,,,M,0.0,M,,0000*5B
$GPGSA,A,1,,,,,,,,,,,,,,,*1E
$GPRMC,083329.835,V,,,,,,,040510,,*22
$GPGGA,083330.835,,,,,0,00,,,M,0.0,M,,0000*53
$GPGSA,A,1,,,,,,,,,,,,,,,*1E
$GPRMC,083330.835,V,,,,,,,040510,,*2A
$GPGGA,083331.833,,,,,0,00,,,M,0.0,M,,0000*54
$GPGSA,A,1,,,,,,,,,,,,,,,*1E
$GPGSV,3,1,10,23,68,189,28,20,68,095,,13,43,209,,32,39,088,*7A
$GPGSV,3,2,10,04,39,299,,17,27,245,,31,25,045,,11,08,164,*7A
$GPGSV,3,3,10,30,04,004,,12,01,334,*7D
$GPRMC,083331.833,V,,,,,,,040510,,*2D
$GPGGA,083332.833,,,,,0,00,,,M,0.0,M,,0000*57
$GPGSA,A,1,,,,,,,,,,,,,,,*1E
$GPRMC,083332.833,V,,,,,,,040510,,*2E
$GPGGA,083333.833,,,,,0,00,,,M,0.0,M,,0000*56
$GPGSA,A,1,,,,,,,,,,,,,,,*1E
$GPRMC,083333.833,V,,,,,,,040510,,*2F
$GPGGA,083334.833,,,,,0,00,,,M,0.0,M,,0000*51
$GPGSA,A,1,,,,,,,,,,,,,,,*1E
$GPRMC,083334.833,V,,,,,,,040510,,*28
$GPGGA,083335.833,,,,,0,00,,,M,0.0,M,,0000*50
$GPGSA,A,1,,,,,,,,,,,,,,,*1E
$GPRMC,083335.833,V,,,,,,,040510,,*29
$GPGGA,083336.833,,,,,0,00,,,M,0.0,M,,0000*53
$GPGSA,A,1,,,,,,,,,,,,,,,*1E
$GPGSV,3,1,10,23,68,189,21,20,68,095,,13,43,209,,32,39,088,*73
$GPGSV,3,2,10,04,39,299,,17,27,245,,31,25,045,,11,08,164,*7A
$GPGSV,3,3,10,30,04,004,,12,01,334,*7D
$GPRMC,083336.833,V,,,,,,,040510,,*2A
$GPGGA,083337.833,,,,,0,00,,,M,0.0,M,,0000*52
$GPGSA,A,1,,,,,,,,,,,,,,,*1E
$GPRMC,083337.833,V,,,,,,,040510,,*2B
$GPGGA,083338.833,,,,,0,00,,,M,0.0,M,,0000*5D
$GPGSA,A,1,,,,,,,,,,,,,,,*1E
$GPRMC,083338.833,V,,,,,,,040510,,*24
$GPGGA,083339.833,,,,,0,00,,,M,0.0,M,,0000*5C
$GPGSA,A,1,,,,,,,,,,,,,,,*1E
$GPRMC,083339.833,V,,,,,,,040510,,*25
$GPGGA,083340.833,,,,,0,00,,,M,0.0,M,,0000*52
$GPGSA,A,1,,,,,,,,,,,,,,,*1E
$GPRMC,083340.833,V,,,,,,,040510,,*2B
$GPGGA,083341.833,,,,,0,00,,,M,0.0,M,,0000*53
$GPGSA,A,1,,,,,,,,,,,,,,,*1E
$GPGSV,3,1,10,23,68,189,31,20,68,095,,13,43,209,31,32,39,088,*70
$GPGSV,3,2,10,04,39,299,,17,27,245,,31,25,045,,11,08,164,*7A
$GPGSV,3,3,10,30,04,004,,12,01,334,*7D
$GPRMC,083341.833,V,,,,,,,040510,,*2A
$GPGGA,083342.833,,,,,0,00,,,M,0.0,M,,0000*50
$GPGSA,A,1,,,,,,,,,,,,,,,*1E
$GPRMC,083342.833,V,,,,,,,040510,,*29
$GPGGA,083343.833,,,,,0,00,,,M,0.0,M,,0000*51
$GPGSA,A,1,,,,,,,,,,,,,,,*1E
$GPRMC,083343.833,V,,,,,,,040510,,*28
$GPGGA,083344.833,,,,,0,00,,,M,0.0,M,,0000*56
$GPGSA,A,1,,,,,,,,,,,,,,,*1E
$GPRMC,083344.833,V,,,,,,,040510,,*2F
$GPGGA,083345.834,,,,,0,00,,,M,0.0,M,,0000*50
$GPGSA,A,1,,,,,,,,,,,,,,,*1E
$GPRMC,083345.834,V,,,,,,,040510,,*29
$GPGGA,083346.834,,,,,0,00,,,M,0.0,M,,0000*53
$GPGSA,A,1,,,,,,,,,,,,,,,*1E
$GPGSV,3,1,10,23,68,189,29,20,68,095,,13,43,209,27,32,39,088,*7E
$GPGSV,3,2,10,04,39,299,24,17,27,245,33,31,25,045,27,11,08,164,*79
$GPGSV,3,3,10,30,04,004,,12,01,334,*7D
$GPRMC,083346.834,V,,,,,,,040510,,*2A
$GPGGA,083347.834,,,,,0,00,,,M,0.0,M,,0000*52
$GPGSA,A,1,,,,,,,,,,,,,,,*1E
$GPRMC,083347.834,V,,,,,,,040510,,*2B
$GPGGA,083348.834,,,,,0,00,,,M,0.0,M,,0000*5D
$GPGSA,A,1,,,,,,,,,,,,,,,*1E
$GPRMC,083348.834,V,,,,,,,040510,,*24
$GPGGA,083349.834,,,,,0,00,,,M,0.0,M,,0000*5C
$GPGSA,A,1,,,,,,,,,,,,,,,*1E
$GPRMC,083349.834,V,,,,,,,040510,,*25
Tx: 0x24505352463130302C302C35373630302C382C312C302A33370D0A
$PSRF100... sent to switch to SiRF protocol at 57600
Comm: CE_FRAME
Comm: CE_FRAME
Comm: CE_FRAME
Comm: CE_FRAME
Comm: CE_FRAME
Comm: CE_FRAME
Comm: CE_FRAME
Comm: CE_FRAME
Comm: CE_FRAME
Comm: CE_FRAME
Comm: CE_FRAME
Comm: CE_FRAME
Comm: CE_FRAME
Comm: CE_FRAME
Comm: CE_FRAME
Comm: CE_FRAME
Comm: CE_FRAME
Comm: CE_FRAME
Comm: CE_FRAME
Comm: CE_FRAME
Comm: CE_FRAME
Comm: CE_FRAME
Comm: CE_FRAME
Tx: 0x24505352463130302C302C35373630302C382C312C302A33370D0A
Tx: 0x24505352463130302C302C35373630302C382C312C302A33370D0A
Tx: 0x24505352463130302C302C35373630302C382C312C302A33370D0A
Tx: 0x24505352463130302C302C35373630302C382C312C302A33370D0A
Tx: 0x24505352463130302C302C35373630302C382C312C302A33370D0A
Tx: 0x24505352463130302C302C35373630302C382C312C302A33370D0A
Tx: 0x24505352463130302C302C35373630302C382C312C302A33370D0A
Tx: 0x24505352463130302C302C35373630302C382C312C302A33370D0A
Tx: 0xA0A20009860000E100080100000170B0B3
Tx: 0xA0A20009860000E100080100000170B0B3
Tx: 0xA0A20009860000E100080100000170B0B3
Tx: 0xA0A20009860000E100080100000170B0B3
Tx: 0xA0A20009860000E100080100000170B0B3
Tx: 0xA0A20009860000E100080100000170B0B3
Tx: 0xA0A20009860000E100080100000170B0B3
Tx: 0xA0A20009860000E100080100000170B0B3
Comm: CE_FRAME
ThrPut(186=1ms): Latency:24576 SegStatMax:31320 AveTrkTime:014 Nav Complete:0000 ms
Tx: 0xA0A2000284000084B0B3
Week:1582  TOW:20366683  EstGPSTime:203666833 ms  SVCnt:0  Clock Drift:95076 Hz  Clock Bias:5190319 ns
SW Version: GSW3.2.2_3.1.00.12-SDK003P1.01a 
Ack: MID_PollSWVersion
GeoNav PC Time=1272962053.359
41,1,4096,1582,203667834,2010,5,4,8,34,12834,0,535564232,99379297,6430,1833,21,0,0,0,0,0,0,0,0,0,157411187,0,1809236,0,0,0,0,0,0
4,558,20366783,12,13,208,43,63,36,36,36,35,35,35,35,35,35,35,4,298,39,53,26,26,26,26,26,26,25,25,25,25,23,189,68,63,31,31,31,31,31,30,30,30,30,30,17,244,27,63,32,32,32,32,32,32,32,32,32,32,31,45,25,37,22,22,22,22,22,22,22,22,22,22,0,0,0,0,0,0,0,0,0,0,0,0,0,0,0,0,0,0,0,0,0,0,0,0,0,0,0,0,0,0,0,0,0,0,0,0,0,0,0,0,0,0,0,0,0,0,0,0,0,0,0,0,0,0,0,0,0,0,0,0,0,0,0,0,0,0,0,0,0,0,0,0,0,0,0,0,0,0,0,0,0,0,0,0,0,0,0,0,0,0,0,0,0,0,0,0,0,0
2,3740108,655305,5107622,0.000,0.000,0.000,0,0.0,16,558,20366783,0,0,0,0,0,0,0,0,0,0,0,0,0
ThrPut(186=1ms): Latency:24576 SegStatMax:31320 AveTrkTime:014 Nav Complete:0000 ms
Week:1582  TOW:20366783  EstGPSTime:203667833 ms  SVCnt:0  Clock Drift:95076 Hz  Clock Bias:5250672 ns
GeoNav PC Time=1272962054.296
41,1,4096,1582,203668834,2010,5,4,8,34,13834,0,535564232,99379297,6430,1833,21,0,0,0,0,0,0,0,0,0,159220524,0,1809236,0,0,0,0,0,0
4,558,20366883,12,13,208,43,63,36,36,36,35,35,35,35,35,35,35,4,298,39,53,26,26,26,26,26,26,26,25,25,25,23,189,68,63,31,31,31,31,31,31,30,30,30,30,17,244,27,63,33,32,32,32,32,32,32,32,32,32,31,45,25,37,22,22,22,22,22,22,22,22,21,21,0,0,0,0,0,0,0,0,0,0,0,0,0,0,0,0,0,0,0,0,0,0,0,0,0,0,0,0,0,0,0,0,0,0,0,0,0,0,0,0,0,0,0,0,0,0,0,0,0,0,0,0,0,0,0,0,0,0,0,0,0,0,0,0,0,0,0,0,0,0,0,0,0,0,0,0,0,0,0,0,0,0,0,0,0,0,0,0,0,0,0,0,0,0,0,0,0,0
2,3740108,655305,5107622,0.000,0.000,0.000,0,0.0,16,558,20366883,0,0,0,0,0,0,0,0,0,0,0,0,0
ThrPut(186=1ms): Latency:24576 SegStatMax:31320 AveTrkTime:014 Nav Complete:0000 ms
Week:1582  TOW:20366883  EstGPSTime:203668833 ms  SVCnt:0  Clock Drift:95076 Hz  Clock Bias:5311025 ns
GeoNav PC Time=1272962055.312
41,1,4096,1582,203669834,2010,5,4,8,34,14834,0,535564232,99379297,6430,1833,21,0,0,0,0,0,0,0,0,0,161029891,0,1809236,0,0,0,0,0,0
4,558,20366983,12,13,208,43,63,36,36,36,35,35,35,35,35,35,35,4,298,39,53,26,26,26,26,26,26,26,25,25,25,23,189,68,63,31,31,31,31,31,31,31,30,30,30,17,244,27,63,33,33,32,32,32,32,32,32,32,32,31,45,25,37,22,22,22,22,22,21,21,21,21,21,0,0,0,0,0,0,0,0,0,0,0,0,0,0,0,0,0,0,0,0,0,0,0,0,0,0,0,0,0,0,0,0,0,0,0,0,0,0,0,0,0,0,0,0,0,0,0,0,0,0,0,0,0,0,0,0,0,0,0,0,0,0,0,0,0,0,0,0,0,0,0,0,0,0,0,0,0,0,0,0,0,0,0,0,0,0,0,0,0,0,0,0,0,0,0,0,0,0
2,3740108,655305,5107622,0.000,0.000,0.000,0,0.0,16,558,20366983,0,0,0,0,0,0,0,0,0,0,0,0,0
ThrPut(186=1ms): Latency:24576 SegStatMax:31320 AveTrkTime:014 Nav Complete:0000 ms
Week:1582  TOW:20366983  EstGPSTime:203669833 ms  SVCnt:0  Clock Drift:95076 Hz  Clock Bias:5371379 ns
GeoNav PC Time=1272962056.390
41,1,4096,1582,203670834,2010,5,4,8,34,15834,0,535564232,99379297,6430,1833,21,0,0,0,0,0,0,0,0,0,162839229,0,1809236,0,0,0,0,0,0
4,558,20367083,12,13,208,43,63,36,36,36,36,35,35,35,35,35,35,4,298,39,53,26,26,26,26,26,26,25,25,25,25,23,189,68,63,31,31,31,31,31,31,31,30,30,30,17,244,27,63,33,33,32,32,32,32,32,32,32,32,31,45,25,37,17,17,17,17,17,16,16,16,16,16,0,0,0,0,0,0,0,0,0,0,0,0,0,0,0,0,0,0,0,0,0,0,0,0,0,0,0,0,0,0,0,0,0,0,0,0,0,0,0,0,0,0,0,0,0,0,0,0,0,0,0,0,0,0,0,0,0,0,0,0,0,0,0,0,0,0,0,0,0,0,0,0,0,0,0,0,0,0,0,0,0,0,0,0,0,0,0,0,0,0,0,0,0,0,0,0,0,0
2,3740108,655305,5107622,0.000,0.000,0.000,0,0.0,16,558,20367083,0,0,0,0,0,0,0,0,0,0,0,0,0
ThrPut(186=1ms): Latency:24576 SegStatMax:31320 AveTrkTime:014 Nav Complete:0000 ms
Week:1582  TOW:20367083  EstGPSTime:203670833 ms  SVCnt:0  Clock Drift:95076 Hz  Clock Bias:5431732 ns
Visible List
SVID:23  Az:189  El:069
SVID:20  Az:096  El:067
SVID:13  Az:209  El:043
SVID:04  Az:299  El:039
SVID:32  Az:088  El:039
SVID:17  Az:245  El:026
SVID:31  Az:045  El:024
SVID:11  Az:163  El:007
SVID:30  Az:004  El:004
SVID:12  Az:334  El:001

GeoNav PC Time=1272962057.312
41,1,4096,1582,203671834,2010,5,4,8,34,16834,0,535564232,99379297,6430,1833,21,0,0,0,0,0,0,0,0,0,164648566,0,1809236,0,0,0,0,0,0
4,558,20367183,12,13,208,43,63,36,36,36,35,35,35,35,35,35,35,4,298,39,53,26,26,26,26,25,25,25,25,25,25,23,189,69,63,31,31,31,31,31,31,31,30,30,30,17,244,26,63,33,33,32,32,32,32,32,32,32,32,31,45,24,37,18,18,18,18,18,18,18,18,18,18,0,0,0,0,0,0,0,0,0,0,0,0,0,0,0,0,0,0,0,0,0,0,0,0,0,0,0,0,0,0,0,0,0,0,0,0,0,0,0,0,0,0,0,0,0,0,0,0,0,0,0,0,0,0,0,0,0,0,0,0,0,0,0,0,0,0,0,0,0,0,0,0,0,0,0,0,0,0,0,0,0,0,0,0,0,0,0,0,0,0,0,0,0,0,0,0,0,0
2,3740108,655305,5107622,0.000,0.000,0.000,0,0.0,16,558,20367183,0,0,0,0,0,0,0,0,0,0,0,0,0
ThrPut(186=1ms): Latency:24576 SegStatMax:31320 AveTrkTime:014 Nav Complete:0000 ms
Week:1582  TOW:20367183  EstGPSTime:203671833 ms  SVCnt:0  Clock Drift:95076 Hz  Clock Bias:5492085 ns
GeoNav PC Time=1272962058.312
41,1,4096,1582,203672834,2010,5,4,8,34,17834,0,535564232,99379297,6430,1833,21,0,0,0,0,0,0,0,0,0,166457904,0,1809236,0,0,0,0,0,0
4,558,20367283,12,13,208,43,63,36,36,35,35,35,35,35,35,35,35,4,298,39,53,26,25,25,25,25,25,25,25,25,25,23,189,69,63,31,31,31,31,31,31,31,31,30,30,17,244,26,63,33,33,32,32,32,32,32,32,32,32,31,45,24,37,20,20,20,20,19,19,19,19,19,19,0,0,0,0,0,0,0,0,0,0,0,0,0,0,0,0,0,0,0,0,0,0,0,0,0,0,0,0,0,0,0,0,0,0,0,0,0,0,0,0,0,0,0,0,0,0,0,0,0,0,0,0,0,0,0,0,0,0,0,0,0,0,0,0,0,0,0,0,0,0,0,0,0,0,0,0,0,0,0,0,0,0,0,0,0,0,0,0,0,0,0,0,0,0,0,0,0,0
2,3740108,655305,5107622,0.000,0.000,0.000,0,0.0,16,558,20367283,0,0,0,0,0,0,0,0,0,0,0,0,0
ThrPut(186=1ms): Latency:24576 SegStatMax:31320 AveTrkTime:014 Nav Complete:0000 ms
Week:1582  TOW:20367283  EstGPSTime:203672833 ms  SVCnt:0  Clock Drift:95076 Hz  Clock Bias:5552438 ns
GeoNav PC Time=1272962059.328
41,1,4096,1582,203673834,2010,5,4,8,34,18834,0,535564232,99379297,6430,1833,21,0,0,0,0,0,0,0,0,0,168267271,0,1809236,0,0,0,0,0,0
4,558,20367383,12,13,208,43,63,36,36,35,35,35,35,35,35,35,35,4,298,39,53,25,25,25,25,25,25,25,25,25,24,23,189,69,63,31,31,31,31,31,31,31,31,31,30,17,244,26,63,33,33,32,32,32,32,32,32,32,32,31,45,24,37,21,21,21,20,20,20,20,20,20,20,0,0,0,0,0,0,0,0,0,0,0,0,0,0,0,0,0,0,0,0,0,0,0,0,0,0,0,0,0,0,0,0,0,0,0,0,0,0,0,0,0,0,0,0,0,0,0,0,0,0,0,0,0,0,0,0,0,0,0,0,0,0,0,0,0,0,0,0,0,0,0,0,0,0,0,0,0,0,0,0,0,0,0,0,0,0,0,0,0,0,0,0,0,0,0,0,0,0
2,3740108,655305,5107622,0.000,0.000,0.000,0,0.0,16,558,20367383,0,0,0,0,0,0,0,0,0,0,0,0,0
ThrPut(186=1ms): Latency:24576 SegStatMax:31320 AveTrkTime:014 Nav Complete:0000 ms
Week:1582  TOW:20367383  EstGPSTime:203673833 ms  SVCnt:0  Clock Drift:95076 Hz  Clock Bias:5612792 ns
GeoNav PC Time=1272962060.312
41,1,4096,1582,203674834,2010,5,4,8,34,19834,0,535564232,99379297,6430,1833,21,0,0,0,0,0,0,0,0,0,170076608,0,1809236,0,0,0,0,0,0
4,558,20367483,12,13,208,43,63,36,35,35,35,35,35,35,35,35,35,4,298,39,0,0,0,0,0,0,0,0,0,0,0,23,189,69,63,31,31,31,31,31,31,31,31,31,31,17,244,26,63,33,33,33,32,32,32,32,32,32,32,31,45,24,37,21,21,21,21,21,21,20,20,20,20,0,0,0,0,0,0,0,0,0,0,0,0,0,0,0,0,0,0,0,0,0,0,0,0,0,0,0,0,0,0,0,0,0,0,0,0,0,0,0,0,0,0,0,0,0,0,0,0,0,0,0,0,0,0,0,0,0,0,0,0,0,0,0,0,0,0,0,0,0,0,0,0,0,0,0,0,0,0,0,0,0,0,0,0,0,0,0,0,0,0,0,0,0,0,0,0,0,0
2,3740108,655305,5107622,0.000,0.000,0.000,0,0.0,16,558,20367483,0,0,0,0,0,0,0,0,0,0,0,0,0
ThrPut(186=1ms): Latency:24576 SegStatMax:31320 AveTrkTime:014 Nav Complete:0000 ms
Week:1582  TOW:20367483  EstGPSTime:203674833 ms  SVCnt:0  Clock Drift:95076 Hz  Clock Bias:5673145 ns
GeoNav PC Time=1272962061.312
41,1,4096,1582,203675834,2010,5,4,8,34,20834,0,535564232,99379297,6430,1833,21,0,0,0,0,0,0,0,0,0,171885946,0,1809236,0,0,0,0,0,0
4,558,20367583,12,13,208,43,63,35,35,35,35,35,35,35,35,35,35,4,298,39,0,0,0,0,0,0,0,0,0,0,0,23,189,69,63,32,31,31,31,31,31,31,31,31,31,17,244,26,63,33,33,33,32,32,32,32,32,32,32,31,45,24,37,21,21,21,21,21,21,20,20,20,20,0,0,0,0,0,0,0,0,0,0,0,0,0,0,0,0,0,0,0,0,0,0,0,0,0,0,0,0,0,0,0,0,0,0,0,0,0,0,0,0,0,0,0,0,0,0,0,0,0,0,0,0,0,0,0,0,0,0,0,0,0,0,0,0,0,0,0,0,0,0,0,0,0,0,0,0,0,0,0,0,0,0,0,0,0,0,0,0,0,0,0,0,0,0,0,0,0,0
2,3740108,655305,5107622,0.000,0.000,0.000,0,0.0,16,558,20367583,0,0,0,0,0,0,0,0,0,0,0,0,0
ThrPut(186=1ms): Latency:24576 SegStatMax:31320 AveTrkTime:014 Nav Complete:0000 ms
Week:1582  TOW:20367583  EstGPSTime:203675833 ms  SVCnt:0  Clock Drift:95076 Hz  Clock Bias:5733498 ns
GeoNav PC Time=1272962062.375
41,1,4096,1582,203676834,2010,5,4,8,34,21834,0,535564232,99379297,6430,1833,21,0,0,0,0,0,0,0,0,0,173695283,0,1809236,0,0,0,0,0,0
4,558,20367683,12,13,208,43,63,35,35,35,35,35,35,35,35,35,35,4,298,39,0,0,0,0,0,0,0,0,0,0,0,23,189,69,191,32,32,31,31,31,31,31,31,31,31,17,244,26,63,33,33,33,33,32,32,32,32,32,32,31,45,24,37,21,21,21,21,21,20,20,20,20,20,0,0,0,0,0,0,0,0,0,0,0,0,0,0,0,0,0,0,0,0,0,0,0,0,0,0,0,0,0,0,0,0,0,0,0,0,0,0,0,0,0,0,0,0,0,0,0,0,0,0,0,0,0,0,0,0,0,0,0,0,0,0,0,0,0,0,0,0,0,0,0,0,0,0,0,0,0,0,0,0,0,0,0,0,0,0,0,0,0,0,0,0,0,0,0,0,0,0
2,3740108,655305,5107622,0.000,0.000,0.000,0,0.0,16,558,20367683,0,0,0,0,0,0,0,0,0,0,0,0,0
ThrPut(186=1ms): Latency:24576 SegStatMax:31320 AveTrkTime:014 Nav Complete:0000 ms
Week:1582  TOW:20367683  EstGPSTime:203676833 ms  SVCnt:0  Clock Drift:95076 Hz  Clock Bias:5793851 ns
Visible List
SVID:23  Az:189  El:069
SVID:20  Az:096  El:067
SVID:13  Az:209  El:043
SVID:04  Az:299  El:039
SVID:32  Az:088  El:039
SVID:17  Az:245  El:026
SVID:31  Az:045  El:024
SVID:11  Az:163  El:007
SVID:30  Az:004  El:004
SVID:12  Az:334  El:001

GeoNav PC Time=1272962063.312
41,1,4096,1582,203677830,2010,5,4,8,34,22830,0,535564232,99379297,6430,1833,21,0,0,0,0,0,0,0,0,0,1809337,0,1809236,0,0,0,0,0,0
4,558,20367783,12,13,208,43,63,35,35,35,35,35,35,35,35,35,35,0,0,0,0,0,0,0,0,0,0,0,0,0,0,23,189,69,191,32,32,32,31,31,31,31,31,31,31,17,244,26,63,33,33,33,33,33,32,32,32,32,32,31,45,24,37,21,21,21,20,20,20,20,20,20,20,0,0,0,0,0,0,0,0,0,0,0,0,0,0,0,0,0,0,0,0,0,0,0,0,0,0,0,0,0,0,0,0,0,0,0,0,0,0,0,0,0,0,0,0,0,0,0,0,0,0,0,0,0,0,0,0,0,0,0,0,0,0,0,0,0,0,0,0,0,0,0,0,0,0,0,0,0,0,0,0,0,0,0,0,0,0,0,0,0,0,0,0,0,0,0,0,0,0
2,3740108,655305,5107622,0.000,0.000,0.000,0,0.0,16,558,20367783,0,0,0,0,0,0,0,0,0,0,0,0,0
ThrPut(186=1ms): Latency:24576 SegStatMax:31320 AveTrkTime:014 Nav Complete:0000 ms
Week:1582  TOW:20367783  EstGPSTime:203677829 ms  SVCnt:0  Clock Drift:95076 Hz  Clock Bias:60353 ns
GeoNav PC Time=1272962064.312
41,1,4096,1582,203678830,2010,5,4,8,34,23830,0,535564232,99379297,6430,1833,21,0,0,0,0,0,0,0,0,0,3618675,0,1809236,0,0,0,0,0,0
4,558,20367883,12,13,208,43,63,35,35,35,35,35,35,35,35,35,35,0,0,0,0,0,0,0,0,0,0,0,0,0,0,23,189,69,191,32,32,32,31,31,31,31,31,31,31,17,244,26,63,33,33,33,33,32,32,32,32,32,32,31,45,24,37,20,20,20,20,20,20,20,20,20,20,0,0,0,0,0,0,0,0,0,0,0,0,0,0,0,0,0,0,0,0,0,0,0,0,0,0,0,0,0,0,0,0,0,0,0,0,0,0,0,0,0,0,0,0,0,0,0,0,0,0,0,0,0,0,0,0,0,0,0,0,0,0,0,0,0,0,0,0,0,0,0,0,0,0,0,0,0,0,0,0,0,0,0,0,0,0,0,0,0,0,0,0,0,0,0,0,0,0
2,3740108,655305,5107622,0.000,0.000,0.000,0,0.0,16,558,20367883,0,0,0,0,0,0,0,0,0,0,0,0,0
ThrPut(186=1ms): Latency:24576 SegStatMax:31320 AveTrkTime:014 Nav Complete:0000 ms
Week:1582  TOW:20367883  EstGPSTime:203678830 ms  SVCnt:0  Clock Drift:95076 Hz  Clock Bias:120706 ns
Tx: 0xA0A20018810201010001010105010101000100010001000100019600012BB0B3
Sent MID_SetNMEAMode Message: Enable
$GPGGA,083425.830,,,,,0,00,,,M,0.0,M,,0000*55
$GPGSA,A,1,,,,,,,,,,,,,,,*1E
$GPRMC,083425.830,V,,,,,,,040510,,*2C
$GPGGA,083426.830,,,,,0,00,,,M,0.0,M,,0000*56
$GPGSA,A,1,,,,,,,,,,,,,,,*1E
$GPRMC,083426.830,V,,,,,,,040510,,*2F
$GPGGA,083427.830,,,,,0,00,,,M,0.0,M,,0000*57
$GPGSA,A,1,,,,,,,,,,,,,,,*1E
$GPRMC,083427.830,V,,,,,,,040510,,*2E
$GPGGA,083428.830,,,,,0,00,,,M,0.0,M,,0000*58
$GPGSA,A,1,,,,,,,,,,,,,,,*1E
$GPGSV,3,1,10,23,69,188,31,13,43,209,35,20,67,096,,04,39,299,*7F
$GPGSV,3,2,10,32,38,088,,17,26,245,32,31,24,045,25,11,07,163,*72
$GPGSV,3,3,10,30,04,003,,12,01,334,*7A
$GPRMC,083428.830,V,,,,,,,040510,,*21
$GPGGA,083429.830,,,,,0,00,,,M,0.0,M,,0000*59
$GPGSA,A,1,,,,,,,,,,,,,,,*1E
$GPRMC,083429.830,V,,,,,,,040510,,*20
$GPGGA,083430.830,,,,,0,00,,,M,0.0,M,,0000*51
$GPGSA,A,1,,,,,,,,,,,,,,,*1E
$GPRMC,083430.830,V,,,,,,,040510,,*28
$GPGGA,083431.830,,,,,0,00,,,M,0.0,M,,0000*50
$GPGSA,A,1,,,,,,,,,,,,,,,*1E
$GPRMC,083431.830,V,,,,,,,040510,,*29
$GPGGA,083432.830,,,,,0,00,,,M,0.0,M,,0000*53
$GPGSA,A,1,,,,,,,,,,,,,,,*1E
$GPRMC,083432.830,V,,,,,,,040510,,*2A
$GPGGA,083433.830,5333.7005,N,00956.9947,E,1,03,4.9,18.3,M,46.0,M,,0000*63
$GPGSA,A,2,23,13,17,,,,,,,,,,5.0,4.9,1.0*3F
$GPGSV,3,1,10,23,69,188,32,13,43,209,34,17,26,245,33,20,67,096,*70
$GPGSV,3,2,10,04,39,299,,32,38,089,,31,24,045,13,11,07,163,*7A
$GPGSV,3,3,10,30,04,003,,12,01,334,*7A
$GPRMC,083433.830,A,5333.7005,N,00956.9947,E,10.68,108.56,040510,,*3F
$GPGGA,083434.830,5333.6992,N,00957.0004,E,1,03,5.0,18.3,M,46.0,M,,0000*6C
$GPGSA,A,2,23,13,17,,,,,,,,,,5.1,5.0,1.0*36
$GPRMC,083434.830,A,5333.6992,N,00957.0004,E,13.20,110.16,040510,,*3A
$GPGGA,083435.830,5333.6977,N,00957.0073,E,1,03,5.0,18.3,M,46.0,M,,0000*66
$GPGSA,A,2,23,13,17,,,,,,,,,,5.1,5.0,1.0*36
$GPRMC,083435.830,A,5333.6977,N,00957.0073,E,15.60,109.31,040510,,*3F
$GPGGA,083436.830,5333.6958,N,00957.0152,E,1,03,5.0,18.3,M,46.0,M,,0000*6A
$GPGSA,A,2,23,13,17,,,,,,,,,,5.1,5.0,1.0*36
$GPRMC,083436.830,A,5333.6958,N,00957.0152,E,18.09,111.08,040510,,*32
$GPGGA,083437.830,5333.6938,N,00957.0241,E,1,03,5.0,18.3,M,46.0,M,,0000*6C
$GPGSA,A,2,23,13,17,,,,,,,,,,5.1,5.0,1.0*36
$GPRMC,083437.830,A,5333.6938,N,00957.0241,E,20.33,109.26,040510,,*33
$GPGGA,083438.830,5333.6915,N,00957.0342,E,1,03,5.0,18.3,M,46.0,M,,0000*6E
$GPGSA,A,2,23,13,17,,,,,,,,,,5.1,5.0,1.0*36
$GPGSV,3,1,10,23,69,188,32,13,43,209,34,17,26,245,34,20,67,096,*77
$GPGSV,3,2,10,04,39,299,30,32,38,089,,31,24,045,19,11,07,163,*73
$GPGSV,3,3,10,30,04,003,,12,01,334,*7A
$GPRMC,083438.830,A,5333.6915,N,00957.0342,E,23.14,110.44,040510,,*3B
$GPGGA,083439.830,5333.6892,N,00957.0451,E,1,03,5.0,18.3,M,46.0,M,,0000*64
$GPGSA,A,2,23,13,17,,,,,,,,,,5.1,5.0,1.0*36
$GPRMC,083439.830,A,5333.6892,N,00957.0451,E,24.61,108.62,040510,,*39
$GPGGA,083440.830,5333.6868,N,00957.0570,E,1,03,5.0,18.3,M,46.0,M,,0000*6D
$GPGSA,A,2,23,13,17,,,,,,,,,,5.1,5.0,1.0*36
$GPRMC,083440.830,A,5333.6868,N,00957.0570,E,26.76,108.57,040510,,*32
$GPGGA,083441.830,5333.6846,N,00957.0697,E,1,03,5.0,18.3,M,46.0,M,,0000*6A
$GPGSA,A,2,23,13,17,,,,,,,,,,5.1,5.0,1.0*36
$GPRMC,083441.830,A,5333.6846,N,00957.0697,E,28.19,106.98,040510,,*3F
$GPGGA,083442.830,5333.6825,N,00957.0832,E,1,03,5.0,18.3,M,46.0,M,,0000*6D
$GPGSA,A,2,23,13,17,,,,,,,,,,5.1,5.0,1.0*36
$GPRMC,083442.830,A,5333.6825,N,00957.0832,E,29.56,105.18,040510,,*39
$GPGGA,083443.830,5333.6805,N,00957.0969,E,1,03,5.0,18.3,M,46.0,M,,0000*61
$GPGSA,A,2,23,13,17,,,,,,,,,,5.1,5.0,1.0*36
$GPGSV,3,1,10,23,69,188,31,13,43,209,34,17,26,245,31,20,67,096,*71
$GPGSV,3,2,10,04,39,299,23,32,38,089,,31,24,045,27,11,07,163,*7C
$GPGSV,3,3,10,30,04,003,,12,01,334,*7A
$GPRMC,083443.830,A,5333.6805,N,00957.0969,E,30.47,103.71,040510,,*34
$GPGGA,083444.830,5333.6786,N,00957.1108,E,1,03,5.0,18.3,M,46.0,M,,0000*6C
$GPGSA,A,2,23,13,17,,,,,,,,,,5.1,5.0,1.0*36
$GPRMC,083444.830,A,5333.6786,N,00957.1108,E,30.70,102.49,040510,,*37
$GPGGA,083445.830,5333.6767,N,00957.1246,E,1,03,5.0,18.3,M,46.0,M,,0000*6B
$GPGSA,A,2,23,13,17,,,,,,,,,,5.1,5.0,1.0*36
$GPRMC,083445.830,A,5333.6767,N,00957.1246,E,30.41,102.19,040510,,*37
$GPGGA,083446.830,5333.6724,N,00957.1359,E,1,03,5.0,18.3,M,46.0,M,,0000*60
$GPGSA,A,2,23,13,17,,,,,,,,,,5.1,5.0,1.0*36
$GPRMC,083446.830,A,5333.6724,N,00957.1359,E,30.62,99.29,040510,,*0D
$GPGGA,083447.830,5333.6800,N,00957.1469,E,1,03,5.0,18.3,M,46.0,M,,0000*6C
$GPGSA,A,2,23,13,17,,,,,,,,,,5.1,5.0,1.0*36
$GPRMC,083447.830,A,5333.6800,N,00957.1469,E,29.71,100.58,040510,,*3C
$GPGGA,083448.830,5333.6729,N,00957.1669,E,1,03,5.0,18.3,M,46.0,M,,0000*65
$GPGSA,A,2,23,13,17,,,,,,,,,,5.1,5.0,1.0*36
$GPGSV,3,1,10,23,69,188,26,13,43,209,34,17,26,244,30,20,67,096,*77
$GPGSV,3,2,10,04,39,299,23,32,38,089,,31,24,045,18,11,07,163,*70
$GPGSV,3,3,10,30,04,003,,12,01,334,*7A
$GPRMC,083448.830,A,5333.6729,N,00957.1669,E,30.85,97.70,040510,,*03
$GPGGA,083449.830,5333.6627,N,00957.1684,E,1,03,5.0,18.3,M,46.0,M,,0000*68
$GPGSA,A,2,23,13,17,,,,,,,,,,5.1,5.0,1.0*36
$GPRMC,083449.830,A,5333.6627,N,00957.1684,E,29.91,96.62,040510,,*01
$GPGGA,083450.830,5333.6692,N,00957.1917,E,1,03,5.0,18.3,M,46.0,M,,0000*6B
$GPGSA,A,2,23,13,17,,,,,,,,,,5.1,5.0,1.0*36
$GPRMC,083450.830,A,5333.6692,N,00957.1917,E,30.03,92.98,040510,,*00
$GPGGA,083451.830,5333.6630,N,00957.1987,E,1,03,5.0,18.3,M,46.0,M,,0000*6B
$GPGSA,A,2,23,13,17,,,,,,,,,,5.1,5.0,1.0*36
$GPRMC,083451.830,A,5333.6630,N,00957.1987,E,30.38,88.72,040510,,*07
$GPGGA,083452.830,5333.6697,N,00957.2193,E,1,03,5.0,18.3,M,46.0,M,,0000*6B
$GPGSA,A,2,23,13,17,,,,,,,,,,5.1,5.0,1.0*36
$GPRMC,083452.830,A,5333.6697,N,00957.2193,E,30.97,84.13,040510,,*09
$GPGGA,083453.830,5333.6774,N,00957.2404,E,1,03,5.0,18.3,M,46.0,M,,0000*6D
$GPGSA,A,2,23,13,17,,,,,,,,,,5.1,5.0,1.0*36
$GPGSV,3,1,10,23,69,188,22,13,43,209,29,17,26,244,32,20,67,096,*7D
$GPGSV,3,2,10,04,39,299,23,32,38,089,,31,24,045,22,11,07,163,18*70
$GPGSV,3,3,10,30,04,003,,12,01,334,*7A
$GPRMC,083453.830,A,5333.6774,N,00957.2404,E,35.52,74.36,040510,,*0B
$GPGGA,083454.830,5333.6756,N,00957.2521,E,1,03,5.0,18.3,M,46.0,M,,0000*6C
$GPGSA,A,2,23,13,17,,,,,,,,,,5.1,5.0,1.0*36
$GPRMC,083454.830,A,5333.6756,N,00957.2521,E,33.03,74.05,040510,,*08
$GPGGA,083455.830,5333.6757,N,00957.2640,E,1,03,5.0,18.3,M,46.0,M,,0000*68
$GPGSA,A,2,23,13,17,,,,,,,,,,5.1,5.0,1.0*36
$GPRMC,083455.830,A,5333.6757,N,00957.2640,E,28.67,81.56,040510,,*08
$GPGGA,083456.830,5333.6694,N,00957.2698,E,1,03,5.0,18.3,M,46.0,M,,0000*60
$GPGSA,A,2,23,13,17,,,,,,,,,,5.1,5.0,1.0*36
$GPRMC,083456.830,A,5333.6694,N,00957.2698,E,28.81,79.08,040510,,*04
$GPGGA,083457.830,5333.6741,N,00957.2865,E,1,03,5.0,18.3,M,46.0,M,,0000*64
$GPGSA,A,2,23,13,17,,,,,,,,,,5.1,5.0,1.0*36
$GPRMC,083457.830,A,5333.6741,N,00957.2865,E,30.23,76.40,040510,,*02
$GPGGA,083458.830,5333.6815,N,00957.3057,E,1,03,5.0,18.3,M,46.0,M,,0000*6D
$GPGSA,A,2,23,13,17,,,,,,,,,,5.1,5.0,1.0*36
$GPGSV,3,1,10,23,69,188,28,13,43,209,30,17,26,244,34,20,67,096,*79
$GPGSV,3,2,10,04,39,299,22,32,38,089,,31,24,045,22,11,07,163,*78
$GPGSV,3,3,10,30,04,003,,12,01,334,*7A
$GPRMC,083458.830,A,5333.6815,N,00957.3057,E,25.87,87.67,040510,,*0A
$GPGGA,083459.830,5333.6914,N,00957.3272,E,1,03,5.0,18.3,M,46.0,M,,0000*69
$GPGSA,A,2,23,13,17,,,,,,,,,,5.1,5.0,1.0*36
$GPRMC,083459.830,A,5333.6914,N,00957.3272,E,28.68,79.09,040510,,*0B
$GPGGA,083500.830,5333.6716,N,00957.3297,E,1,03,5.0,18.3,M,46.0,M,,0000*63
$GPGSA,A,2,23,13,17,,,,,,,,,,5.1,5.0,1.0*36
$GPRMC,083500.830,A,5333.6716,N,00957.3297,E,29.89,77.26,040510,,*0C
$GPGGA,083501.830,5333.6757,N,00957.3397,E,1,03,5.0,18.3,M,46.0,M,,0000*66
$GPGSA,A,2,23,13,17,,,,,,,,,,5.1,5.0,1.0*36
$GPRMC,083501.830,A,5333.6757,N,00957.3397,E,29.87,76.09,040510,,*0B
$GPGGA,083502.830,5333.6790,N,00957.3522,E,1,03,5.0,18.3,M,46.0,M,,0000*66
$GPGSA,A,2,23,13,17,,,,,,,,,,5.1,5.0,1.0*36
$GPRMC,083502.830,A,5333.6790,N,00957.3522,E,30.34,74.97,040510,,*0E
$GPGGA,083503.830,5333.6880,N,00957.3705,E,1,03,5.0,18.3,M,46.0,M,,0000*6E
$GPGSA,A,2,23,13,17,,,,,,,,,,5.1,5.0,1.0*36
$GPGSV,3,1,10,23,69,188,28,13,43,209,30,17,26,244,35,20,67,096,*78
$GPGSV,3,2,10,04,39,299,27,32,38,089,,31,24,045,16,11,07,163,*7A
$GPGSV,3,3,10,30,04,003,,12,01,334,*7A
$GPRMC,083503.830,A,5333.6880,N,00957.3705,E,30.40,72.99,040510,,*0D
$GPGGA,083504.830,5333.6918,N,00957.3843,E,1,03,5.0,18.3,M,46.0,M,,0000*64
$GPGSA,A,2,23,13,17,,,,,,,,,,5.1,5.0,1.0*36
$GPRMC,083504.830,A,5333.6918,N,00957.3843,E,30.42,70.95,040510,,*0B
$GPGGA,083505.830,5333.6955,N,00957.3977,E,1,03,5.0,18.3,M,46.0,M,,0000*6A
$GPGSA,A,2,23,13,17,,,,,,,,,,5.1,5.0,1.0*36
$GPRMC,083505.830,A,5333.6955,N,00957.3977,E,30.61,67.57,040510,,*0C
$GPGGA,083506.830,5333.6992,N,00957.4110,E,1,03,5.0,18.3,M,46.0,M,,0000*6C
$GPGSA,A,2,23,13,17,,,,,,,,,,5.1,5.0,1.0*36
$GPRMC,083506.830,A,5333.6992,N,00957.4110,E,30.67,65.16,040510,,*0B
$GPGGA,083507.830,5333.7033,N,00957.4237,E,1,03,5.0,18.3,M,46.0,M,,0000*68
$GPGSA,A,2,23,13,17,,,,,,,,,,5.1,5.0,1.0*36
$GPRMC,083507.830,A,5333.7033,N,00957.4237,E,30.74,61.61,040510,,*09
$GPGGA,083508.830,5333.7076,N,00957.4364,E,1,03,5.0,18.3,M,46.0,M,,0000*61
$GPGSA,A,2,23,13,17,,,,,,,,,,5.1,5.0,1.0*36
$GPGSV,3,1,10,23,69,188,34,13,43,209,31,17,26,244,32,20,67,096,*73
$GPGSV,3,2,10,04,39,299,23,32,38,089,19,31,24,045,26,11,07,163,*75
$GPGSV,3,3,10,30,04,003,,12,01,334,*7A
$GPRMC,083508.830,A,5333.7076,N,00957.4364,E,30.76,59.19,040510,,*06
$GPGGA,083509.830,5333.7121,N,00957.4490,E,1,03,5.0,18.3,M,46.0,M,,0000*6F
$GPGSA,A,2,23,13,17,,,,,,,,,,5.1,5.0,1.0*36
$GPRMC,083509.830,A,5333.7121,N,00957.4490,E,30.77,57.00,040510,,*0F
$GPGGA,083510.830,5333.7163,N,00957.4616,E,1,03,5.0,18.3,M,46.0,M,,0000*6D
$GPGSA,A,2,23,13,17,,,,,,,,,,5.1,5.0,1.0*36
$GPRMC,083510.830,A,5333.7163,N,00957.4616,E,31.24,57.22,040510,,*0A
$GPGGA,083511.830,5333.7127,N,00957.4864,E,1,03,5.0,18.3,M,46.0,M,,0000*67
$GPGSA,A,2,23,13,17,,,,,,,,,,5.1,5.0,1.0*36
$GPRMC,083511.830,A,5333.7127,N,00957.4864,E,31.58,59.85,040510,,*08
$GPGGA,083512.830,5333.7200,N,00957.4943,E,1,03,5.0,18.3,M,46.0,M,,0000*66
$GPGSA,A,2,23,13,17,,,,,,,,,,5.1,5.0,1.0*36
$GPRMC,083512.830,A,5333.7200,N,00957.4943,E,31.83,60.94,040510,,*05
$GPGGA,083513.830,5333.7271,N,00957.5025,E,1,03,5.0,18.3,M,46.0,M,,0000*69
$GPGSA,A,2,23,13,17,,,,,,,,,,5.1,5.0,1.0*36
$GPGSV,3,1,10,23,69,188,35,13,43,209,32,17,26,244,21,20,67,096,28*79
$GPGSV,3,2,10,04,39,299,24,32,38,089,25,31,24,045,20,11,07,163,*7B
$GPGSV,3,3,10,30,04,003,,12,01,334,*7A
$GPRMC,083513.830,A,5333.7271,N,00957.5025,E,31.44,57.03,040510,,*0B
$GPGGA,083514.830,5333.7354,N,00957.5098,E,1,03,5.0,18.3,M,46.0,M,,0000*6E
$GPGSA,A,2,23,13,17,,,,,,,,,,5.1,5.0,1.0*36
$GPRMC,083514.830,A,5333.7354,N,00957.5098,E,31.71,58.30,040510,,*05
$GPGGA,083515.830,5333.7418,N,00957.5192,E,1,03,5.0,18.3,M,46.0,M,,0000*6B
$GPGSA,A,2,23,13,17,,,,,,,,,,5.1,5.0,1.0*36
$GPRMC,083515.830,A,5333.7418,N,00957.5192,E,32.42,62.18,040510,,*00
$GPGGA,083516.830,5333.7432,N,00957.5369,E,1,03,5.0,18.3,M,46.0,M,,0000*66
$GPGSA,A,2,23,13,17,,,,,,,,,,5.1,5.0,1.0*36
$GPRMC,083516.830,A,5333.7432,N,00957.5369,E,32.28,60.84,040510,,*06
$GPGGA,083517.830,5333.7471,N,00957.5511,E,1,03,5.0,18.3,M,46.0,M,,0000*69
$GPGSA,A,2,23,13,17,,,,,,,,,,5.1,5.0,1.0*36
$GPRMC,083517.830,A,5333.7471,N,00957.5511,E,32.05,54.04,040510,,*09
$GPGGA,083518.830,5333.7471,N,00957.5712,E,1,03,5.0,18.3,M,46.0,M,,0000*67
$GPGSA,A,2,23,13,17,,,,,,,,,,5.1,5.0,1.0*36
$GPGSV,3,1,11,23,69,188,34,13,43,209,32,17,26,244,23,20,67,096,25*76
$GPGSV,3,2,11,04,40,299,28,32,38,089,24,31,24,045,18,11,07,163,*72
$GPGSV,3,3,11,30,04,003,,12,01,334,,02,00,316,*4D
$GPRMC,083518.830,A,5333.7471,N,00957.5712,E,32.04,55.02,040510,,*01
$GPGGA,083519.830,5333.7535,N,00957.5815,E,1,03,5.0,18.3,M,46.0,M,,0000*6F
$GPGSA,A,2,23,13,17,,,,,,,,,,5.1,5.0,1.0*36
$GPRMC,083519.830,A,5333.7535,N,00957.5815,E,32.67,60.73,040510,,*0C
$GPGGA,083520.830,5333.7557,N,00957.5978,E,1,03,5.0,18.3,M,46.0,M,,0000*6B
$GPGSA,A,2,23,13,17,,,,,,,,,,5.1,5.0,1.0*36
$GPRMC,083520.830,A,5333.7557,N,00957.5978,E,33.89,66.59,040510,,*07
$GPGGA,083521.830,5333.7646,N,00957.6042,E,1,03,5.0,18.3,M,46.0,M,,0000*6A
$GPGSA,A,2,23,13,17,,,,,,,,,,5.1,5.0,1.0*36
$GPRMC,083521.830,A,5333.7646,N,00957.6042,E,32.93,61.19,040510,,*0F
$GPGGA,083522.830,5333.7720,N,00957.6125,E,1,03,5.0,18.3,M,46.0,M,,0000*68
$GPGSA,A,2,23,13,17,,,,,,,,,,5.1,5.0,1.0*36
$GPRMC,083522.830,A,5333.7720,N,00957.6125,E,32.47,60.05,040510,,*08
$GPGGA,083523.830,5333.7810,N,00957.6181,E,1,03,5.0,18.3,M,46.0,M,,0000*6B
$GPGSA,A,2,23,13,17,,,,,,,,,,5.1,5.0,1.0*36
$GPGSV,3,1,11,23,69,188,34,13,43,209,32,17,26,244,30,20,67,096,25*74
$GPGSV,3,2,11,04,40,299,26,32,38,089,25,31,24,045,22,11,07,163,*74
$GPGSV,3,3,11,30,04,003,,12,01,334,,02,00,316,*4D
$GPRMC,083523.830,A,5333.7810,N,00957.6181,E,32.20,58.59,040510,,*08
$GPGGA,083524.830,5333.7868,N,00957.6289,E,1,03,5.0,18.3,M,46.0,M,,0000*68
$GPGSA,A,2,23,13,17,,,,,,,,,,5.1,5.0,1.0*36
$GPRMC,083524.830,A,5333.7868,N,00957.6289,E,31.78,59.71,040510,,*0E
$GPGGA,083525.830,5333.7871,N,00957.6485,E,1,03,5.0,18.3,M,46.0,M,,0000*6B
$GPGSA,A,2,23,13,17,,,,,,,,,,5.1,5.0,1.0*36
$GPRMC,083525.830,A,5333.7871,N,00957.6485,E,32.46,62.77,040510,,*0D
$GPGGA,083526.830,5333.7960,N,00957.6541,E,1,03,5.0,18.3,M,46.0,M,,0000*60
$GPGSA,A,2,23,13,17,,,,,,,,,,5.1,5.0,1.0*36
$GPRMC,083526.830,A,5333.7960,N,00957.6541,E,31.60,62.44,040510,,*01
$GPGGA,083527.830,5333.7957,N,00957.6735,E,1,03,5.0,18.3,M,46.0,M,,0000*64
$GPGSA,A,2,23,13,17,,,,,,,,,,5.1,5.0,1.0*36
$GPRMC,083527.830,A,5333.7957,N,00957.6735,E,31.58,64.89,040510,,*09
$GPGGA,083528.830,5333.7987,N,00957.6874,E,1,03,5.0,18.3,M,46.0,M,,0000*6C
$GPGSA,A,2,23,13,17,,,,,,,,,,5.1,5.0,1.0*36
$GPGSV,3,1,11,23,69,188,34,13,43,209,33,17,26,244,29,20,67,096,25*7D
$GPGSV,3,2,11,04,40,299,27,32,38,089,24,31,24,045,22,11,07,163,*74
$GPGSV,3,3,11,30,04,003,25,12,01,334,,02,00,316,*4A
$GPRMC,083528.830,A,5333.7987,N,00957.6874,E,31.44,67.36,040510,,*0B
$GPGGA,083529.830,5333.8026,N,00957.6989,E,1,03,5.0,18.3,M,46.0,M,,0000*63
$GPGSA,A,2,23,13,17,,,,,,,,,,5.1,5.0,1.0*36
$GPRMC,083529.830,A,5333.8026,N,00957.6989,E,30.59,70.77,040510,,*0A
$GPGGA,083530.830,5333.8030,N,00957.7118,E,1,03,5.0,18.3,M,46.0,M,,0000*6D
$GPGSA,A,2,23,13,17,,,,,,,,,,5.1,5.0,1.0*36
$GPRMC,083530.830,A,5333.8030,N,00957.7118,E,31.67,72.29,040510,,*01
$GPGGA,083531.830,5333.8010,N,00957.7236,E,1,03,5.0,18.3,M,46.0,M,,0000*61
$GPGSA,A,2,23,13,17,,,,,,,,,,5.1,5.0,1.0*36
$GPRMC,083531.830,A,5333.8010,N,00957.7236,E,29.46,79.62,040510,,*03
$GPGGA,083532.830,5333.8097,N,00957.7443,E,1,03,5.0,18.3,M,46.0,M,,0000*69
$GPGSA,A,2,23,13,17,,,,,,,,,,5.1,5.0,1.0*36
$GPRMC,083532.830,A,5333.8097,N,00957.7443,E,31.16,78.74,040510,,*01
$GPGGA,083533.830,5333.8073,N,00957.7561,E,1,03,5.0,18.3,M,46.0,M,,0000*63
$GPGSA,A,2,23,13,17,,,,,,,,,,5.1,5.0,1.0*36
$GPGSV,3,1,11,23,69,188,27,13,43,209,27,17,26,244,34,20,67,096,18*78
$GPGSV,3,2,11,04,40,299,22,32,38,089,25,31,24,045,22,11,07,163,*70
$GPGSV,3,3,11,30,04,003,30,12,01,334,,02,00,316,*4E
$GPRMC,083533.830,A,5333.8073,N,00957.7561,E,30.80,89.43,040510,,*0F
$GPGGA,083534.830,5333.8147,N,00957.7697,E,1,03,5.0,18.3,M,46.0,M,,0000*68
$GPGSA,A,2,23,13,17,,,,,,,,,,5.1,5.0,1.0*36
$GPRMC,083534.830,A,5333.8147,N,00957.7697,E,31.43,75.09,040510,,*07
$GPGGA,083535.830,5333.8211,N,00957.7802,E,1,03,5.0,18.3,M,46.0,M,,0000*6B
$GPGSA,A,2,23,13,17,,,,,,,,,,5.1,5.0,1.0*36
$GPRMC,083535.830,A,5333.8211,N,00957.7802,E,31.10,76.53,040510,,*0E
$GPGGA,083536.830,5333.8178,N,00957.8005,E,1,03,5.0,18.3,M,46.0,M,,0000*64
$GPGSA,A,2,23,13,17,,,,,,,,,,5.1,5.0,1.0*36
$GPRMC,083536.830,A,5333.8178,N,00957.8005,E,29.97,80.53,040510,,*0E
$GPGGA,083537.830,5333.8168,N,00957.8184,E,1,03,5.0,18.3,M,46.0,M,,0000*6C
$GPGSA,A,2,23,13,17,,,,,,,,,,5.1,5.0,1.0*36
$GPRMC,083537.830,A,5333.8168,N,00957.8184,E,30.01,86.53,040510,,*07
$GPGGA,083538.830,5333.8181,N,00957.8283,E,1,03,5.0,18.3,M,46.0,M,,0000*60
$GPGSA,A,2,23,13,17,,,,,,,,,,5.1,5.0,1.0*36
$GPGSV,3,1,11,23,69,188,26,13,43,209,23,17,26,244,34,20,67,096,17*72
$GPGSV,3,2,11,04,40,299,24,32,38,089,19,31,24,045,18,11,07,163,*70
$GPGSV,3,3,11,30,04,003,20,12,01,334,,02,00,316,*4F
$GPRMC,083538.830,A,5333.8181,N,00957.8283,E,29.68,75.91,040510,,*0E
$GPGGA,083539.830,5333.8277,N,00957.8420,E,1,03,5.0,18.3,M,46.0,M,,0000*64
$GPGSA,A,2,23,13,17,,,,,,,,,,5.1,5.0,1.0*36
$GPRMC,083539.830,A,5333.8277,N,00957.8420,E,28.70,81.81,040510,,*08
$GPGGA,083540.830,5333.8310,N,00957.8496,E,1,03,5.0,18.3,M,46.0,M,,0000*67
$GPGSA,A,2,23,13,17,,,,,,,,,,5.1,5.0,1.0*36
$GPRMC,083540.830,A,5333.8310,N,00957.8496,E,26.86,88.19,040510,,*04
$GPGGA,083541.830,5333.8339,N,00957.8664,E,1,03,5.0,18.3,M,46.0,M,,0000*62
$GPGSA,A,2,23,13,17,,,,,,,,,,5.1,5.0,1.0*36
$GPRMC,083541.830,A,5333.8339,N,00957.8664,E,26.09,79.35,040510,,*06
$GPGGA,083542.830,5333.8282,N,00957.8808,E,1,03,5.0,18.3,M,46.0,M,,0000*64
$GPGSA,A,2,23,13,17,,,,,,,,,,5.1,5.0,1.0*36
$GPRMC,083542.830,A,5333.8282,N,00957.8808,E,26.43,79.80,040510,,*00
$GPGGA,083543.830,5333.8265,N,00957.8846,E,1,03,5.0,18.3,M,46.0,M,,0000*66
$GPGSA,A,2,23,13,17,,,,,,,,,,5.1,5.0,1.0*36
$GPGSV,3,1,11,23,69,188,26,13,43,209,28,17,26,244,35,20,67,096,18*77
$GPGSV,3,2,11,04,40,299,24,32,38,089,22,31,24,045,21,11,07,163,*72
$GPGSV,3,3,11,30,04,003,,12,01,334,22,02,00,316,*4D
$GPRMC,083543.830,A,5333.8265,N,00957.8846,E,24.75,80.03,040510,,*08
$GPGGA,083544.830,5333.8377,N,00957.8927,E,1,03,5.0,18.3,M,46.0,M,,0000*65
$GPGSA,A,2,23,13,17,,,,,,,,,,5.1,5.0,1.0*36
$GPRMC,083544.830,A,5333.8377,N,00957.8927,E,23.32,93.98,040510,,*0F
$GPGGA,083545.830,5333.8504,N,00957.9132,E,1,03,5.0,18.3,M,46.0,M,,0000*6B
$GPGSA,A,2,23,13,17,,,,,,,,,,5.1,5.0,1.0*36
$GPRMC,083545.830,A,5333.8504,N,00957.9132,E,22.76,89.26,040510,,*0E
$GPGGA,083546.830,5333.8354,N,00957.9201,E,1,03,5.0,18.3,M,46.0,M,,0000*68
$GPGSA,A,2,23,13,17,,,,,,,,,,5.1,5.0,1.0*36
$GPRMC,083546.830,A,5333.8354,N,00957.9201,E,21.46,85.90,040510,,*0C
$GPGGA,083547.830,5333.8259,N,00957.9297,E,1,03,5.0,18.3,M,46.0,M,,0000*6A
$GPGSA,A,2,23,13,17,,,,,,,,,,5.1,5.0,1.0*36
$GPRMC,083547.830,A,5333.8259,N,00957.9297,E,22.71,79.07,040510,,*04
$GPGGA,083548.830,5333.8285,N,00957.9395,E,1,03,5.0,18.3,M,46.0,M,,0000*67
$GPGSA,A,2,23,13,17,,,,,,,,,,5.1,5.0,1.0*36
$GPGSV,3,1,11,23,69,188,26,13,44,209,30,17,26,244,35,20,67,096,18*79
$GPGSV,3,2,11,04,40,299,24,32,38,089,22,31,24,044,27,11,07,163,*75
$GPGSV,3,3,11,30,04,003,,12,01,334,,02,00,316,*4D
$GPRMC,083548.830,A,5333.8285,N,00957.9395,E,21.60,84.10,040510,,*0E
$GPGGA,083549.830,5333.8202,N,00957.9467,E,1,03,5.0,18.3,M,46.0,M,,0000*63
$GPGSA,A,2,23,13,17,,,,,,,,,,5.1,5.0,1.0*36
$GPRMC,083549.830,A,5333.8202,N,00957.9467,E,20.18,87.38,040510,,*0D
$GPGGA,083550.830,5333.8184,N,00957.9649,E,1,03,5.0,18.3,M,46.0,M,,0000*68
$GPGSA,A,2,23,13,17,,,,,,,,,,5.1,5.0,1.0*36
$GPRMC,083550.830,A,5333.8184,N,00957.9649,E,20.27,78.64,040510,,*03
$GPGGA,083551.830,5333.8221,N,00957.9657,E,1,03,5.0,18.3,M,46.0,M,,0000*6A
$GPGSA,A,2,23,13,17,,,,,,,,,,5.1,5.0,1.0*36
$GPRMC,083551.830,A,5333.8221,N,00957.9657,E,18.01,86.01,040510,,*0C
$GPGGA,083552.830,5333.8229,N,00957.9633,E,1,03,5.0,18.3,M,46.0,M,,0000*63
$GPGSA,A,2,23,13,17,,,,,,,,,,5.1,5.0,1.0*36
$GPRMC,083552.830,A,5333.8229,N,00957.9633,E,16.92,88.41,040510,,*0B
$GPGGA,083553.830,5333.8247,N,00957.9840,E,1,03,5.0,18.3,M,46.0,M,,0000*60
$GPGSA,A,2,23,13,17,,,,,,,,,,5.1,5.0,1.0*36
$GPGSV,3,1,11,23,69,188,26,13,44,209,28,17,26,244,35,20,67,096,17*7F
$GPGSV,3,2,11,04,40,299,21,32,38,089,27,31,24,044,19,11,07,163,*78
$GPGSV,3,3,11,30,04,003,,12,01,334,,02,00,316,*4D
$GPRMC,083553.830,A,5333.8247,N,00957.9840,E,15.21,90.62,040510,,*0B
$GPGGA,083554.830,5333.8178,N,00957.9909,E,1,03,5.0,18.3,M,46.0,M,,0000*64
$GPGSA,A,2,23,13,17,,,,,,,,,,5.1,5.0,1.0*36
$GPRMC,083554.830,A,5333.8178,N,00957.9909,E,14.48,80.73,040510,,*00
$GPGGA,083555.830,5333.8096,N,00957.9910,E,1,03,5.0,18.3,M,46.0,M,,0000*6C
$GPGSA,A,2,23,13,17,,,,,,,,,,5.1,5.0,1.0*36
$GPRMC,083555.830,A,5333.8096,N,00957.9910,E,12.95,81.50,040510,,*0E
$GPGGA,083556.830,5333.8210,N,00958.0014,E,1,03,5.0,18.3,M,46.0,M,,0000*68
$GPGSA,A,2,23,13,17,,,,,,,,,,5.1,5.0,1.0*36
$GPRMC,083556.830,A,5333.8210,N,00958.0014,E,10.36,89.74,040510,,*0F
$GPGGA,083557.830,5333.8174,N,00958.0001,E,1,03,5.0,18.3,M,46.0,M,,0000*6C
$GPGSA,A,2,23,13,17,,,,,,,,,,5.1,5.0,1.0*36
$GPRMC,083557.830,A,5333.8174,N,00958.0001,E,9.22,95.69,040510,,*37
$GPGGA,083558.830,5333.8194,N,00958.0040,E,1,03,5.0,18.3,M,46.0,M,,0000*68
$GPGSA,A,2,23,13,17,,,,,,,,,,5.1,5.0,1.0*36
$GPGSV,3,1,11,23,69,188,21,13,44,209,28,17,26,244,35,20,67,096,16*79
$GPGSV,3,2,11,04,40,299,22,32,38,089,23,31,24,044,19,11,07,163,*7F
$GPGSV,3,3,11,30,04,003,,12,01,334,18,02,00,316,*44
$GPRMC,083558.830,A,5333.8194,N,00958.0040,E,7.65,99.42,040510,,*3B
$GPGGA,083559.830,5333.8231,N,00958.0082,E,1,03,5.0,18.3,M,46.0,M,,0000*6B
$GPGSA,A,2,23,13,17,,,,,,,,,,5.1,5.0,1.0*36
$GPRMC,083559.830,A,5333.8231,N,00958.0082,E,6.54,91.03,040510,,*36
$GPGGA,083600.830,5333.8177,N,00958.0052,E,1,03,5.0,18.3,M,46.0,M,,0000*68
$GPGSA,A,2,23,13,17,,,,,,,,,,5.1,5.0,1.0*36
$GPRMC,083600.830,A,5333.8177,N,00958.0052,E,4.61,95.83,040510,,*3D
$GPGGA,083601.830,5333.8278,N,00958.0162,E,1,03,5.0,18.3,M,46.0,M,,0000*67
$GPGSA,A,2,23,13,17,,,,,,,,,,5.1,5.0,1.0*36
$GPRMC,083601.830,A,5333.8278,N,00958.0162,E,2.68,107.83,040510,,*07
$GPGGA,083602.830,5333.8377,N,00958.0268,E,1,03,5.0,18.3,M,46.0,M,,0000*63
$GPGSA,A,2,23,13,17,,,,,,,,,,5.1,5.0,1.0*36
$GPRMC,083602.830,A,5333.8377,N,00958.0268,E,3.21,68.27,040510,,*39
$GPGGA,083603.830,5333.8378,N,00958.0271,E,1,03,5.0,18.3,M,46.0,M,,0000*65
$GPGSA,A,2,23,13,17,,,,,,,,,,5.1,5.0,1.0*36
$GPGSV,3,1,11,23,69,188,22,13,44,209,28,17,26,244,35,20,67,096,16*7A
$GPGSV,3,2,11,04,40,299,22,32,38,089,22,31,24,044,23,11,07,163,*77
$GPGSV,3,3,11,30,04,003,,12,01,334,,02,00,316,*4D
$GPRMC,083603.830,A,5333.8378,N,00958.0271,E,3.20,36.19,040510,,*38
$GPGGA,083604.831,,,,,0,00,,,M,0.0,M,,0000*55
$GPGSA,A,1,,,,,,,,,,,,,,,*1E
$GPRMC,083604.831,V,,,,,,,040510,,*2C
$GPGGA,083605.831,,,,,0,00,,,M,0.0,M,,0000*54
$GPGSA,A,1,,,,,,,,,,,,,,,*1E
$GPRMC,083605.831,V,,,,,,,040510,,*2D
$GPGGA,083606.831,,,,,0,00,,,M,0.0,M,,0000*57
$GPGSA,A,1,,,,,,,,,,,,,,,*1E
$GPRMC,083606.831,V,,,,,,,040510,,*2E
$GPGGA,083607.830,,,,,0,00,,,M,0.0,M,,0000*57
$GPGSA,A,1,,,,,,,,,,,,,,,*1E
$GPRMC,083607.830,V,,,,,,,040510,,*2E
$GPGGA,083608.830,5333.7771,N,00957.9686,E,1,03,5.0,18.3,M,46.0,M,,0000*66
$GPGSA,A,2,23,13,17,,,,,,,,,,5.1,5.0,1.0*36
$GPGSV,3,1,11,23,69,188,16,13,44,209,28,17,26,244,35,20,67,096,16*7D
$GPGSV,3,2,11,04,40,299,22,32,38,089,21,31,24,044,17,11,07,163,*73
$GPGSV,3,3,11,30,04,003,,12,01,334,,02,00,316,*4D
$GPRMC,083608.830,A,5333.7771,N,00957.9686,E,4.21,211.64,040510,,*00
$GPGGA,083609.830,5333.7827,N,00957.9725,E,1,03,5.0,18.3,M,46.0,M,,0000*63
$GPGSA,A,2,23,13,17,,,,,,,,,,5.1,5.0,1.0*36
$GPRMC,083609.830,A,5333.7827,N,00957.9725,E,1.50,211.46,040510,,*06
$GPGGA,083610.830,5333.7923,N,00957.9807,E,1,03,5.0,18.3,M,46.0,M,,0000*61
$GPGSA,A,2,23,13,17,,,,,,,,,,5.1,5.0,1.0*36
$GPRMC,083610.830,A,5333.7923,N,00957.9807,E,3.05,24.14,040510,,*35
$GPGGA,083611.830,5333.7867,N,00957.9752,E,1,03,5.0,18.3,M,46.0,M,,0000*6E
$GPGSA,A,2,23,13,17,,,,,,,,,,5.1,5.0,1.0*36
$GPRMC,083611.830,A,5333.7867,N,00957.9752,E,2.54,27.78,040510,,*36
$GPGGA,083612.830,5333.7762,N,00957.9660,E,1,03,5.0,18.3,M,46.0,M,,0000*67
$GPGSA,A,2,23,13,17,,,,,,,,,,5.1,5.0,1.0*36
$GPRMC,083612.830,A,5333.7762,N,00957.9660,E,1.36,15.72,040510,,*33
$GPGGA,083613.830,5333.8034,N,00957.9903,E,1,03,5.0,18.3,M,46.0,M,,0000*67
$GPGSA,A,2,23,13,17,,,,,,,,,,5.1,5.0,1.0*36
$GPGSV,3,1,11,23,69,188,17,13,44,209,28,17,26,244,36,20,67,096,18*71
$GPGSV,3,2,11,04,40,299,19,32,38,089,21,31,24,044,25,11,07,163,21*79
$GPGSV,3,3,11,30,04,003,,12,01,334,,02,00,316,*4D
$GPRMC,083613.830,A,5333.8034,N,00957.9903,E,0.08,343.41,040510,,*0F
$GPGGA,083614.830,5333.8117,N,00957.9971,E,0,03,,18.3,M,46.0,M,,0000*4F
$GPGSA,A,1,23,13,17,,,,,,,,,,,,*1B
$GPRMC,083614.830,A,5333.8117,N,00957.9971,E,,,040510,,*04
$GPGGA,083615.830,5333.8241,N,00958.0065,E,1,03,5.1,18.3,M,46.0,M,,0000*6F
$GPGSA,A,2,23,13,17,,,,,,,,,,5.2,5.1,1.0*34
$GPRMC,083615.830,A,5333.8241,N,00958.0065,E,2.65,202.63,040510,,*0B
$GPGGA,083616.830,5333.8364,N,00958.0132,E,1,03,5.1,18.3,M,46.0,M,,0000*69
$GPGSA,A,2,23,13,17,,,,,,,,,,5.2,5.1,1.0*34
$GPRMC,083616.830,A,5333.8364,N,00958.0132,E,1.43,245.44,040510,,*0C
$GPGGA,083617.830,5333.8124,N,00958.0149,E,1,03,5.1,18.3,M,46.0,M,,0000*62
$GPGSA,A,2,23,13,17,,,,,,,,,,5.2,5.1,1.0*34
$GPRMC,083617.830,A,5333.8124,N,00958.0149,E,1.95,216.52,040510,,*0D
$GPGGA,083618.830,5333.8116,N,00958.0050,E,1,03,5.1,18.3,M,46.0,M,,0000*65
$GPGSA,A,2,23,13,17,,,,,,,,,,5.2,5.1,1.0*34
$GPGSV,3,1,11,23,70,188,16,13,44,209,24,17,26,244,36,20,66,096,18*75
$GPGSV,3,2,11,04,40,299,12,32,38,089,21,31,24,044,23,11,06,163,*76
$GPGSV,3,3,11,30,04,003,,12,01,333,,02,00,316,*4A
$GPRMC,083618.830,A,5333.8116,N,00958.0050,E,2.48,228.83,040510,,*08
$GPGGA,083619.830,5333.7924,N,00957.9787,E,1,03,5.1,18.3,M,46.0,M,,0000*69
$GPGSA,A,2,23,13,17,,,,,,,,,,5.2,5.1,1.0*34
$GPRMC,083619.830,A,5333.7924,N,00957.9787,E,2.85,210.11,040510,,*05
$GPGGA,083620.830,5333.7777,N,00957.9674,E,1,03,5.1,18.3,M,46.0,M,,0000*66
$GPGSA,A,2,23,13,17,,,,,,,,,,5.2,5.1,1.0*34
$GPRMC,083620.830,A,5333.7777,N,00957.9674,E,3.72,202.56,040510,,*03
$GPGGA,083621.830,5333.7725,N,00957.9573,E,1,03,5.1,18.3,M,46.0,M,,0000*64
$GPGSA,A,2,23,13,17,,,,,,,,,,5.2,5.1,1.0*34
$GPRMC,083621.830,A,5333.7725,N,00957.9573,E,2.91,201.53,040510,,*0B
$GPGGA,083622.830,5333.7709,N,00957.9697,E,1,03,5.1,18.3,M,46.0,M,,0000*60
$GPGSA,A,2,23,13,17,,,,,,,,,,5.2,5.1,1.0*34
$GPRMC,083622.830,A,5333.7709,N,00957.9697,E,0.78,26.99,040510,,*3B
$GPGGA,083623.830,5333.7731,N,00957.9738,E,1,03,5.1,18.3,M,46.0,M,,0000*6E
$GPGSA,A,2,23,13,17,,,,,,,,,,5.2,5.1,1.0*34
$GPGSV,3,1,11,23,70,188,23,13,44,209,29,17,26,244,36,20,66,096,17*71
$GPGSV,3,2,11,04,40,299,13,32,38,089,18,31,24,044,16,11,06,163,*7B
$GPGSV,3,3,11,30,04,003,,12,01,333,,02,00,316,*4A
$GPRMC,083623.830,A,5333.7731,N,00957.9738,E,0.32,231.64,040510,,*0D
$GPGGA,083624.830,5333.7637,N,00957.9657,E,1,03,5.1,18.3,M,46.0,M,,0000*66
$GPGSA,A,2,23,13,17,,,,,,,,,,5.2,5.1,1.0*34
$GPRMC,083624.830,A,5333.7637,N,00957.9657,E,2.31,209.57,040510,,*0F
$GPGGA,083625.830,5333.7609,N,00957.9651,E,1,03,5.1,18.3,M,46.0,M,,0000*6C
$GPGSA,A,2,23,13,17,,,,,,,,,,5.2,5.1,1.0*34
$GPRMC,083625.830,A,5333.7609,N,00957.9651,E,1.65,17.21,040510,,*3B
$GPGGA,083626.830,5333.7708,N,00957.9746,E,1,03,5.1,18.3,M,46.0,M,,0000*68
$GPGSA,A,2,23,13,17,,,,,,,,,,5.2,5.1,1.0*34
$GPRMC,083626.830,A,5333.7708,N,00957.9746,E,1.42,215.04,040510,,*0D
$GPGGA,083627.830,5333.7698,N,00957.9734,E,1,03,5.1,18.3,M,46.0,M,,0000*64
$GPGSA,A,2,23,13,17,,,,,,,,,,5.2,5.1,1.0*34
$GPRMC,083627.830,A,5333.7698,N,00957.9734,E,0.60,16.88,040510,,*35
$GPGGA,083628.830,5333.7712,N,00957.9735,E,1,03,5.1,18.3,M,46.0,M,,0000*69
$GPGSA,A,2,23,13,17,,,,,,,,,,5.2,5.1,1.0*34
$GPGSV,3,1,11,23,70,188,23,13,44,209,29,17,26,244,36,20,66,096,16*70
$GPGSV,3,2,11,04,40,299,16,32,38,089,19,31,24,044,16,11,06,163,*7F
$GPGSV,3,3,11,30,04,003,,12,01,333,,02,00,316,*4A
$GPRMC,083628.830,A,5333.7712,N,00957.9735,E,1.78,20.74,040510,,*36
$GPGGA,083629.830,5333.7811,N,00957.9818,E,1,03,5.1,18.3,M,46.0,M,,0000*64
$GPGSA,A,2,23,13,17,,,,,,,,,,5.2,5.1,1.0*34
$GPRMC,083629.830,A,5333.7811,N,00957.9818,E,0.26,270.20,040510,,*07
$GPGGA,083630.830,5333.7816,N,00957.9821,E,1,03,5.1,18.3,M,46.0,M,,0000*61
$GPGSA,A,2,23,13,17,,,,,,,,,,5.2,5.1,1.0*34
$GPRMC,083630.830,A,5333.7816,N,00957.9821,E,4.41,210.01,040510,,*02
$GPGGA,083631.830,5333.7811,N,00957.9815,E,1,03,5.1,18.3,M,46.0,M,,0000*60
$GPGSA,A,2,23,13,17,,,,,,,,,,5.2,5.1,1.0*34
$GPRMC,083631.830,A,5333.7811,N,00957.9815,E,2.56,210.79,040510,,*0C
$GPGGA,083632.830,5333.7830,N,00957.9825,E,1,03,5.1,18.3,M,46.0,M,,0000*63
$GPGSA,A,2,23,13,17,,,,,,,,,,5.2,5.1,1.0*34
$GPRMC,083632.830,A,5333.7830,N,00957.9825,E,0.52,347.41,040510,,*01
$GPGGA,083633.830,5333.7818,N,00957.9800,E,1,03,5.1,18.3,M,46.0,M,,0000*6F
$GPGSA,A,2,23,13,17,,,,,,,,,,5.2,5.1,1.0*34
$GPGSV,3,1,11,23,70,188,22,13,44,209,29,17,26,244,36,20,66,096,*76
$GPGSV,3,2,11,04,40,299,17,32,38,089,18,31,24,044,19,11,06,163,21*73
$GPGSV,3,3,11,30,04,003,,12,01,333,16,02,00,316,*4D
$GPRMC,083633.830,A,5333.7818,N,00957.9800,E,1.67,209.51,040510,,*00
$GPGGA,083634.830,5333.7730,N,00957.9709,E,1,03,5.1,18.3,M,46.0,M,,0000*6B
$GPGSA,A,2,23,13,17,,,,,,,,,,5.2,5.1,1.0*34
$GPRMC,083634.830,A,5333.7730,N,00957.9709,E,0.93,10.84,040510,,*3C
$GPGGA,083635.830,5333.7781,N,00957.9748,E,1,03,5.1,18.3,M,46.0,M,,0000*65
$GPGSA,A,2,23,13,17,,,,,,,,,,5.2,5.1,1.0*34
$GPRMC,083635.830,A,5333.7781,N,00957.9748,E,1.51,213.34,040510,,*07
$GPGGA,083636.830,5333.7838,N,00957.9795,E,1,03,5.1,18.3,M,46.0,M,,0000*6B
$GPGSA,A,2,23,13,17,,,,,,,,,,5.2,5.1,1.0*34
$GPRMC,083636.830,A,5333.7838,N,00957.9795,E,1.92,19.11,040510,,*39
$GPGGA,083637.830,5333.7835,N,00957.9788,E,1,03,5.1,18.3,M,46.0,M,,0000*6B
$GPGSA,A,2,23,13,17,,,,,,,,,,5.2,5.1,1.0*34
$GPRMC,083637.830,A,5333.7835,N,00957.9788,E,0.67,230.17,040510,,*0D
$GPGGA,083638.830,5333.7794,N,00957.9751,E,1,03,5.1,18.3,M,46.0,M,,0000*64
$GPGSA,A,2,23,13,17,,,,,,,,,,5.2,5.1,1.0*34
$GPGSV,3,1,11,23,70,188,22,13,44,209,30,17,26,244,35,20,66,096,*7D
$GPGSV,3,2,11,04,40,299,18,32,38,089,18,31,24,044,21,11,06,163,*74
$GPGSV,3,3,11,30,04,003,,12,01,333,,02,00,316,*4A
$GPRMC,083638.830,A,5333.7794,N,00957.9751,E,0.19,323.12,040510,,*0D
$GPGGA,083639.830,5333.7818,N,00957.9774,E,1,03,5.1,18.3,M,46.0,M,,0000*69
$GPGSA,A,2,23,13,17,,,,,,,,,,5.2,5.1,1.0*34
