SiRFDemo Version 3.81 log file opened 04/28/10 20:49:20

Tx: 0xA0A2000284000084B0B3
Tx: 0xA0A2000298000098B0B3
$GPGGA,184920.000,5333.4049,N,00956.2671,E,1,04,3.8,51.9,M,46.0,M,,0000*6D
$GPGSA,A,3,30,14,09,22,,,,,,,,,7.3,3.8,6.3*37
$GPRMC,184920.000,A,5333.4049,N,00956.2671,E,1.55,209.89,280410,,*06
$GPGGA,184921.000,5333.4049,N,00956.2668,E,1,04,3.8,54.0,M,46.0,M,,0000*68
$GPGSA,A,3,30,14,09,22,,,,,,,,,7.3,3.8,6.2*36
$GPGSV,3,1,10,09,69,127,21,27,63,127,21,12,62,245,23,26,39,194,*7B
$GPGSV,3,2,10,14,30,311,20,17,27,048,,30,26,249,19,04,12,095,*7A
$GPGSV,3,3,10,22,09,270,18,15,09,174,*72
$GPRMC,184921.000,A,5333.4049,N,00956.2668,E,0.51,255.44,280410,,*02
$GPGGA,184922.000,5333.4053,N,00956.2659,E,1,04,3.8,56.2,M,46.0,M,,0000*62
$GPGSA,A,3,30,14,09,22,,,,,,,,,7.3,3.8,6.2*36
$GPRMC,184922.000,A,5333.4053,N,00956.2659,E,1.19,340.76,280410,,*01
$GPGGA,184923.000,5333.4049,N,00956.2652,E,1,04,3.8,58.7,M,46.0,M,,0000*68
$GPGSA,A,3,30,14,09,22,,,,,,,,,7.3,3.8,6.2*36
$GPRMC,184923.000,A,5333.4049,N,00956.2652,E,0.94,13.54,280410,,*31
$GPGGA,184924.000,5333.4042,N,00956.2655,E,1,04,3.8,59.1,M,46.0,M,,0000*64
$GPGSA,A,3,30,14,09,22,,,,,,,,,7.3,3.8,6.2*36
$GPRMC,184924.000,A,5333.4042,N,00956.2655,E,0.30,5.30,280410,,*01
$GPGGA,184925.000,5333.4044,N,00956.2665,E,1,03,2.5,57.9,M,46.0,M,,0000*6D
$GPGSA,A,2,14,09,22,,,,,,,,,,2.7,2.5,1.0*3C
$GPRMC,184925.000,A,5333.4044,N,00956.2665,E,0.67,25.96,280410,,*39
$GPGGA,184926.000,5333.4033,N,00956.2647,E,1,04,3.8,60.2,M,46.0,M,,0000*6A
$GPGSA,A,3,30,14,09,22,,,,,,,,,7.3,3.8,6.2*36
$GPGSV,3,1,10,09,69,127,21,27,63,127,20,12,62,245,23,26,39,194,*7A
$GPGSV,3,2,10,14,30,311,20,17,27,048,,30,26,249,19,04,12,095,*7A
$GPGSV,3,3,10,22,09,270,19,15,09,174,*73
$GPRMC,184926.000,A,5333.4033,N,00956.2647,E,1.45,216.12,280410,,*05
$GPGGA,184927.000,5333.4035,N,00956.2643,E,1,03,2.5,60.2,M,46.0,M,,0000*62
$GPGSA,A,2,14,09,22,,,,,,,,,,2.7,2.5,1.0*3C
$GPRMC,184927.000,A,5333.4035,N,00956.2643,E,1.40,205.44,280410,,*02
$GPGGA,184928.000,5333.4025,N,00956.2618,E,1,04,3.8,64.0,M,46.0,M,,0000*6F
$GPGSA,A,3,30,14,09,22,,,,,,,,,7.3,3.8,6.2*36
$GPRMC,184928.000,A,5333.4025,N,00956.2618,E,1.95,222.74,280410,,*0C
$GPGGA,184929.000,5333.4020,N,00956.2628,E,1,04,3.8,63.4,M,46.0,M,,0000*6B
$GPGSA,A,3,30,14,09,22,,,,,,,,,7.3,3.8,6.2*36
$GPRMC,184929.000,A,5333.4020,N,00956.2628,E,0.87,212.34,280410,,*0E
$GPGGA,184930.000,5333.4014,N,00956.2630,E,1,04,3.8,63.3,M,46.0,M,,0000*6A
$GPGSA,A,3,30,14,09,22,,,,,,,,,7.3,3.8,6.2*36
$GPRMC,184930.000,A,5333.4014,N,00956.2630,E,0.72,210.46,280410,,*05
$GPGGA,184931.000,5333.4014,N,00956.2617,E,1,04,3.8,65.9,M,46.0,M,,0000*62
$GPGSA,A,3,30,14,09,22,,,,,,,,,7.3,3.8,6.2*36
$GPGSV,3,1,10,09,69,127,21,27,63,127,20,12,62,245,24,26,39,194,*7D
$GPGSV,3,2,10,14,30,311,20,17,27,048,,30,26,249,18,04,12,095,*7B
$GPGSV,3,3,10,22,09,270,19,15,09,174,*73
$GPRMC,184931.000,A,5333.4014,N,00956.2617,E,0.73,193.61,280410,,*0D
$GPGGA,184932.000,5333.4026,N,00956.2629,E,1,04,3.8,65.8,M,46.0,M,,0000*6C
$GPGSA,A,3,30,14,09,22,,,,,,,,,7.2,3.8,6.2*37
$GPRMC,184932.000,A,5333.4026,N,00956.2629,E,0.88,346.15,280410,,*0F
$GPGGA,184933.000,5333.4039,N,00956.2622,E,1,04,3.8,66.5,M,46.0,M,,0000*66
$GPGSA,A,3,30,14,09,22,,,,,,,,,7.2,3.8,6.2*37
$GPRMC,184933.000,A,5333.4039,N,00956.2622,E,1.98,338.06,280410,,*00
$GPGGA,184934.000,5333.4049,N,00956.2624,E,1,04,3.8,66.6,M,46.0,M,,0000*63
$GPGSA,A,3,30,14,09,22,,,,,,,,,7.2,3.8,6.2*37
$GPRMC,184934.000,A,5333.4049,N,00956.2624,E,2.05,336.56,280410,,*0A
$GPGGA,184935.000,5333.4059,N,00956.2614,E,1,04,3.8,68.3,M,46.0,M,,0000*6B
$GPGSA,A,3,30,14,09,22,,,,,,,,,7.2,3.8,6.2*37
$GPRMC,184935.000,A,5333.4059,N,00956.2614,E,1.38,323.53,280410,,*05
$GPGGA,184936.000,5333.4060,N,00956.2604,E,1,04,3.8,70.1,M,46.0,M,,0000*68
$GPGSA,A,3,30,14,09,22,,,,,,,,,7.2,3.8,6.2*37
$GPGSV,3,1,10,09,69,127,21,27,63,127,20,12,62,245,24,26,39,194,*7D
$GPGSV,3,2,10,14,30,311,20,17,27,048,,30,26,249,17,04,12,095,*74
$GPGSV,3,3,10,22,09,270,19,15,09,174,*73
$GPRMC,184936.000,A,5333.4060,N,00956.2604,E,1.51,274.64,280410,,*05

Log file closed 04/28/10 20:49:37
